{"type":"Topology","arcs":[],"objects":{"flow_county_points":{"type":"GeometryCollection","geometries":[{"type":"Point","coordinates":[-120.67957503040033,47.124455407724085],"properties":{"id":"53037","lat":47.1245,"lon":-120.6796,"RES_WORK":16358,"NAME":"Kittitas","FIPS":53037,"RES_COM":2795,"RES_TOT":19153,"RES_COM_PE":14.59,"WOR_COM_PE":85.41,"WORK_COM":1275}},{"type":"Point","coordinates":[-118.56039881010466,46.98365015888945],"properties":{"id":"53001","lat":46.9837,"lon":-118.5604,"RES_WORK":5865,"NAME":"Adams","FIPS":53001,"RES_COM":1719,"RES_TOT":7584,"RES_COM_PE":22.67,"WOR_COM_PE":77.33,"WORK_COM":1864}},{"type":"Point","coordinates":[-122.84730582351034,43.938597254893345],"properties":{"id":"41039","lat":43.9386,"lon":-122.8473,"RES_WORK":148796,"NAME":"Lane","FIPS":41039,"RES_COM":5288,"RES_TOT":154084,"RES_COM_PE":3.43,"WOR_COM_PE":96.57,"WORK_COM":7243}},{"type":"Point","coordinates":[-121.16756905849414,45.16015960435861],"properties":{"id":"41065","lat":45.1602,"lon":-121.1676,"RES_WORK":8912,"NAME":"Wasco","FIPS":41065,"RES_COM":1802,"RES_TOT":10714,"RES_COM_PE":16.82,"WOR_COM_PE":83.18,"WORK_COM":1759}},{"type":"Point","coordinates":[-119.00725699315822,44.49129882288299],"properties":{"id":"41023","lat":44.4913,"lon":-119.0073,"RES_WORK":2611,"NAME":"Grant","FIPS":41023,"RES_COM":201,"RES_TOT":2812,"RES_COM_PE":7.15,"WOR_COM_PE":92.85,"WORK_COM":97}},{"type":"Point","coordinates":[-120.68936320329053,45.405247271884484],"properties":{"id":"41055","lat":45.4052,"lon":-120.6894,"RES_WORK":521,"NAME":"Sherman","FIPS":41055,"RES_COM":195,"RES_TOT":716,"RES_COM_PE":27.23,"WOR_COM_PE":72.77,"WORK_COM":314}},{"type":"Point","coordinates":[-115.56649658958546,44.766407715842284],"properties":{"id":"16085","lat":44.7664,"lon":-115.5665,"RES_WORK":3807,"NAME":"Valley","FIPS":16085,"RES_COM":403,"RES_TOT":4210,"RES_COM_PE":9.57,"WOR_COM_PE":90.43,"WORK_COM":680}},{"type":"Point","coordinates":[-113.93359264201378,44.94362566524677],"properties":{"id":"16059","lat":44.9436,"lon":-113.9336,"RES_WORK":2937,"NAME":"Lemhi","FIPS":16059,"RES_COM":82,"RES_TOT":3019,"RES_COM_PE":2.72,"WOR_COM_PE":97.28,"WORK_COM":75}},{"type":"Point","coordinates":[-120.35596597741461,44.14218402866363],"properties":{"id":"41013","lat":44.1422,"lon":-120.356,"RES_WORK":5599,"NAME":"Crook","FIPS":41013,"RES_COM":2030,"RES_TOT":7629,"RES_COM_PE":26.61,"WOR_COM_PE":73.39,"WORK_COM":1103}},{"type":"Point","coordinates":[-123.5556060779743,42.36516300564824],"properties":{"id":"41033","lat":42.3652,"lon":-123.5556,"RES_WORK":23286,"NAME":"Josephine","FIPS":41033,"RES_COM":4073,"RES_TOT":27359,"RES_COM_PE":14.89,"WOR_COM_PE":85.11,"WORK_COM":2920}},{"type":"Point","coordinates":[-114.1383582934143,43.0022958872667],"properties":{"id":"16063","lat":43.0023,"lon":-114.1384,"RES_WORK":1073,"NAME":"Lincoln","FIPS":16063,"RES_COM":1085,"RES_TOT":2158,"RES_COM_PE":50.28,"WOR_COM_PE":49.72,"WORK_COM":363}},{"type":"Point","coordinates":[-117.67551686792034,44.709131610778385],"properties":{"id":"41001","lat":44.7091,"lon":-117.6755,"RES_WORK":5528,"NAME":"Baker","FIPS":41001,"RES_COM":648,"RES_TOT":6176,"RES_COM_PE":10.49,"WOR_COM_PE":89.51,"WORK_COM":422}},{"type":"Point","coordinates":[-114.28164684274125,44.24135494765756],"properties":{"id":"16037","lat":44.2414,"lon":-114.2816,"RES_WORK":1406,"NAME":"Custer","FIPS":16037,"RES_COM":176,"RES_TOT":1582,"RES_COM_PE":11.13,"WOR_COM_PE":88.87,"WORK_COM":117}},{"type":"Point","coordinates":[-124.1563219225013,42.457573992288815],"properties":{"id":"41015","lat":42.4576,"lon":-124.1563,"RES_WORK":6967,"NAME":"Curry","FIPS":41015,"RES_COM":175,"RES_TOT":7142,"RES_COM_PE":2.45,"WOR_COM_PE":97.55,"WORK_COM":207}},{"type":"Point","coordinates":[-121.80645454992317,47.49003462317657],"properties":{"id":"53033","lat":47.49,"lon":-121.8065,"RES_WORK":977541,"NAME":"King","FIPS":53033,"RES_COM":74704,"RES_TOT":1052245,"RES_COM_PE":7.1,"WOR_COM_PE":92.9,"WORK_COM":239821}},{"type":"Point","coordinates":[-120.6189221872973,47.86921543335482],"properties":{"id":"53007","lat":47.8692,"lon":-120.6189,"RES_WORK":27608,"NAME":"Chelan","FIPS":53007,"RES_COM":4457,"RES_TOT":32065,"RES_COM_PE":13.9,"WOR_COM_PE":86.1,"WORK_COM":9527}},{"type":"Point","coordinates":[-122.5340964596771,44.4886514195676],"properties":{"id":"41043","lat":44.4887,"lon":-122.5341,"RES_WORK":32608,"NAME":"Linn","FIPS":41043,"RES_COM":15311,"RES_TOT":47919,"RES_COM_PE":31.95,"WOR_COM_PE":68.05,"WORK_COM":10970}},{"type":"Point","coordinates":[-122.11161021276835,47.02671944940425],"properties":{"id":"53053","lat":47.0267,"lon":-122.1116,"RES_WORK":263500,"NAME":"Pierce","FIPS":53053,"RES_COM":106710,"RES_TOT":370210,"RES_COM_PE":28.82,"WOR_COM_PE":71.18,"WORK_COM":61750}},{"type":"Point","coordinates":[-115.4671154309573,45.84405504825859],"properties":{"id":"16049","lat":45.8441,"lon":-115.4671,"RES_WORK":5388,"NAME":"Idaho","FIPS":16049,"RES_COM":887,"RES_TOT":6275,"RES_COM_PE":14.14,"WOR_COM_PE":85.86,"WORK_COM":542}},{"type":"Point","coordinates":[-116.42622805170707,46.237019084052605],"properties":{"id":"16061","lat":46.237,"lon":-116.4262,"RES_WORK":961,"NAME":"Lewis","FIPS":16061,"RES_COM":519,"RES_TOT":1480,"RES_COM_PE":35.07,"WOR_COM_PE":64.93,"WORK_COM":559}},{"type":"Point","coordinates":[-120.21152928632495,45.37777458095464],"properties":{"id":"41021","lat":45.3778,"lon":-120.2115,"RES_WORK":709,"NAME":"Gilliam","FIPS":41021,"RES_COM":52,"RES_TOT":761,"RES_COM_PE":6.83,"WOR_COM_PE":93.17,"WORK_COM":186}},{"type":"Point","coordinates":[-112.83986982101588,42.6931799197643],"properties":{"id":"16077","lat":42.6932,"lon":-112.8399,"RES_WORK":2191,"NAME":"Power","FIPS":16077,"RES_COM":956,"RES_TOT":3147,"RES_COM_PE":30.38,"WOR_COM_PE":69.62,"WORK_COM":1528}},{"type":"Point","coordinates":[-121.73269235206934,48.47947506065218],"properties":{"id":"53057","lat":48.4795,"lon":-121.7327,"RES_WORK":40913,"NAME":"Skagit","FIPS":53057,"RES_COM":9836,"RES_TOT":50749,"RES_COM_PE":19.38,"WOR_COM_PE":80.62,"WORK_COM":11990}},{"type":"Point","coordinates":[-122.67344617484318,47.61336913282432],"properties":{"id":"53035","lat":47.6134,"lon":-122.6734,"RES_WORK":95235,"NAME":"Kitsap","FIPS":53035,"RES_COM":21280,"RES_TOT":116515,"RES_COM_PE":18.26,"WOR_COM_PE":81.74,"WORK_COM":11344}},{"type":"Point","coordinates":[-123.86808498508248,44.64181199559089],"properties":{"id":"41041","lat":44.6418,"lon":-123.8681,"RES_WORK":17882,"NAME":"Lincoln","FIPS":41041,"RES_COM":1085,"RES_TOT":18967,"RES_COM_PE":5.72,"WOR_COM_PE":94.28,"WORK_COM":1202}},{"type":"Point","coordinates":[-113.97967316367284,43.41153889949816],"properties":{"id":"16013","lat":43.4115,"lon":-113.9797,"RES_WORK":11133,"NAME":"Blaine","FIPS":16013,"RES_COM":422,"RES_TOT":11555,"RES_COM_PE":3.65,"WOR_COM_PE":96.35,"WORK_COM":1298}},{"type":"Point","coordinates":[-116.7605067174317,44.006792401343674],"properties":{"id":"16075","lat":44.0068,"lon":-116.7605,"RES_WORK":4627,"NAME":"Payette","FIPS":16075,"RES_COM":4581,"RES_TOT":9208,"RES_COM_PE":49.75,"WOR_COM_PE":50.25,"WORK_COM":1795}},{"type":"Point","coordinates":[-118.96782462897626,43.06405897099237],"properties":{"id":"41025","lat":43.0641,"lon":-118.9678,"RES_WORK":2734,"NAME":"Harney","FIPS":41025,"RES_COM":76,"RES_TOT":2810,"RES_COM_PE":2.7,"WOR_COM_PE":97.3,"WORK_COM":143}},{"type":"Point","coordinates":[-122.83281375218219,46.926759047853665],"properties":{"id":"53067","lat":46.9268,"lon":-122.8328,"RES_WORK":87072,"NAME":"Thurston","FIPS":53067,"RES_COM":32796,"RES_TOT":119868,"RES_COM_PE":27.36,"WOR_COM_PE":72.64,"WORK_COM":19994}},{"type":"Point","coordinates":[-119.69146791935162,47.73629673464975],"properties":{"id":"53017","lat":47.7363,"lon":-119.6915,"RES_WORK":7574,"NAME":"Douglas","FIPS":53017,"RES_COM":10104,"RES_TOT":17678,"RES_COM_PE":57.16,"WOR_COM_PE":42.84,"WORK_COM":3991}},{"type":"Point","coordinates":[-116.60137675556209,48.30007951514046],"properties":{"id":"16017","lat":48.3001,"lon":-116.6014,"RES_WORK":12921,"NAME":"Bonner","FIPS":16017,"RES_COM":2701,"RES_TOT":15622,"RES_COM_PE":17.29,"WOR_COM_PE":82.71,"WORK_COM":1523}},{"type":"Point","coordinates":[-120.78883566328152,45.87349552409061],"properties":{"id":"53039","lat":45.8735,"lon":-120.7888,"RES_WORK":5320,"NAME":"Klickitat","FIPS":53039,"RES_COM":2242,"RES_TOT":7562,"RES_COM_PE":29.65,"WOR_COM_PE":70.35,"WORK_COM":1678}},{"type":"Point","coordinates":[-121.69794185102562,48.047586543562836],"properties":{"id":"53061","lat":48.0476,"lon":-121.6979,"RES_WORK":233454,"NAME":"Snohomish","FIPS":53061,"RES_COM":128781,"RES_TOT":362235,"RES_COM_PE":35.55,"WOR_COM_PE":64.45,"WORK_COM":53046}},{"type":"Point","coordinates":[-123.77324248573862,47.149784261510796],"properties":{"id":"53027","lat":47.1498,"lon":-123.7732,"RES_WORK":21346,"NAME":"Grays Harbor","FIPS":53027,"RES_COM":4284,"RES_TOT":25630,"RES_COM_PE":16.71,"WOR_COM_PE":83.29,"WORK_COM":2651}},{"type":"Point","coordinates":[-114.26447156217084,42.68985633327717],"properties":{"id":"16053","lat":42.6899,"lon":-114.2645,"RES_WORK":5462,"NAME":"Jerome","FIPS":16053,"RES_COM":3770,"RES_TOT":9232,"RES_COM_PE":40.84,"WOR_COM_PE":59.16,"WORK_COM":3355}},{"type":"Point","coordinates":[-117.90673355123141,46.29714171018085],"properties":{"id":"53013","lat":46.2971,"lon":-117.9067,"RES_WORK":1178,"NAME":"Columbia","FIPS":53013,"RES_COM":363,"RES_TOT":1541,"RES_COM_PE":23.56,"WOR_COM_PE":76.44,"WORK_COM":344}},{"type":"Point","coordinates":[-123.0983413930861,45.55982667184385],"properties":{"id":"41067","lat":45.5598,"lon":-123.0983,"RES_WORK":188006,"NAME":"Washington","FIPS":41067,"RES_COM":82018,"RES_TOT":270024,"RES_COM_PE":30.37,"WOR_COM_PE":69.63,"WORK_COM":83457}},{"type":"Point","coordinates":[-122.22027098536996,45.18788281344686],"properties":{"id":"41005","lat":45.1879,"lon":-122.2203,"RES_WORK":88754,"NAME":"Clackamas","FIPS":41005,"RES_COM":91803,"RES_TOT":180557,"RES_COM_PE":50.84,"WOR_COM_PE":49.16,"WORK_COM":60104}},{"type":"Point","coordinates":[-117.52303166536493,46.9013176419718],"properties":{"id":"53075","lat":46.9013,"lon":-117.523,"RES_WORK":18639,"NAME":"Whitman","FIPS":53075,"RES_COM":2149,"RES_TOT":20788,"RES_COM_PE":10.34,"WOR_COM_PE":89.66,"WORK_COM":4925}},{"type":"Point","coordinates":[-117.85512119678194,48.398947988169],"properties":{"id":"53065","lat":48.3989,"lon":-117.8551,"RES_WORK":10517,"NAME":"Stevens","FIPS":53065,"RES_COM":4799,"RES_TOT":15316,"RES_COM_PE":31.33,"WOR_COM_PE":68.67,"WORK_COM":1341}},{"type":"Point","coordinates":[-114.81148784829865,42.97084782484517],"properties":{"id":"16047","lat":42.9708,"lon":-114.8115,"RES_WORK":4694,"NAME":"Gooding","FIPS":16047,"RES_COM":1991,"RES_TOT":6685,"RES_COM_PE":29.78,"WOR_COM_PE":70.22,"WORK_COM":1389}},{"type":"Point","coordinates":[-112.39792139840267,43.21654832307238],"properties":{"id":"16011","lat":43.2165,"lon":-112.3979,"RES_WORK":12359,"NAME":"Bingham","FIPS":16011,"RES_COM":5844,"RES_TOT":18203,"RES_COM_PE":32.1,"WOR_COM_PE":67.9,"WORK_COM":3053}},{"type":"Point","coordinates":[-123.42455417028881,46.29225432922339],"properties":{"id":"53069","lat":46.2923,"lon":-123.4246,"RES_WORK":644,"NAME":"Wahkiakum","FIPS":53069,"RES_COM":552,"RES_TOT":1196,"RES_COM_PE":46.15,"WOR_COM_PE":53.85,"WORK_COM":421}},{"type":"Point","coordinates":[-112.22436971521009,42.66831476280535],"properties":{"id":"16005","lat":42.6683,"lon":-112.2244,"RES_WORK":31419,"NAME":"Bannock","FIPS":16005,"RES_COM":4193,"RES_TOT":35612,"RES_COM_PE":11.77,"WOR_COM_PE":88.23,"WORK_COM":2707}},{"type":"Point","coordinates":[-116.74993227949125,46.32699008350637],"properties":{"id":"16069","lat":46.327,"lon":-116.7499,"RES_WORK":14918,"NAME":"Nez Perce","FIPS":16069,"RES_COM":3221,"RES_TOT":18139,"RES_COM_PE":17.76,"WOR_COM_PE":82.24,"WORK_COM":6578}},{"type":"Point","coordinates":[-117.27391984991092,48.53236999361249],"properties":{"id":"53051","lat":48.5324,"lon":-117.2739,"RES_WORK":2530,"NAME":"Pend Oreille","FIPS":53051,"RES_COM":1477,"RES_TOT":4007,"RES_COM_PE":36.86,"WOR_COM_PE":63.14,"WORK_COM":965}},{"type":"Point","coordinates":[-116.78511564604601,44.452716088252124],"properties":{"id":"16087","lat":44.4527,"lon":-116.7851,"RES_WORK":2371,"NAME":"Washington","FIPS":16087,"RES_COM":1161,"RES_TOT":3532,"RES_COM_PE":32.87,"WOR_COM_PE":67.13,"WORK_COM":500}},{"type":"Point","coordinates":[-114.80607114371524,43.46305106887655],"properties":{"id":"16025","lat":43.4631,"lon":-114.8061,"RES_WORK":304,"NAME":"Camas","FIPS":16025,"RES_COM":182,"RES_TOT":486,"RES_COM_PE":37.45,"WOR_COM_PE":62.55,"WORK_COM":99}},{"type":"Point","coordinates":[-121.17636211654256,44.629443112816126],"properties":{"id":"41031","lat":44.6294,"lon":-121.1764,"RES_WORK":5946,"NAME":"Jefferson","FIPS":41031,"RES_COM":1903,"RES_TOT":7849,"RES_COM_PE":24.25,"WOR_COM_PE":75.75,"WORK_COM":1290}},{"type":"Point","coordinates":[-121.65002552587863,42.68634379645238],"properties":{"id":"41035","lat":42.6863,"lon":-121.65,"RES_WORK":23764,"NAME":"Klamath","FIPS":41035,"RES_COM":879,"RES_TOT":24643,"RES_COM_PE":3.57,"WOR_COM_PE":96.43,"WORK_COM":474}},{"type":"Point","coordinates":[-116.45385825087834,44.88942837472261],"properties":{"id":"16003","lat":44.8894,"lon":-116.4539,"RES_WORK":962,"NAME":"Adams","FIPS":16003,"RES_COM":489,"RES_TOT":1451,"RES_COM_PE":33.7,"WOR_COM_PE":66.3,"WORK_COM":254}},{"type":"Point","coordinates":[-122.58455158389101,44.903169877158376],"properties":{"id":"41047","lat":44.9032,"lon":-122.5846,"RES_WORK":107484,"NAME":"Marion","FIPS":41047,"RES_COM":26547,"RES_TOT":134031,"RES_COM_PE":19.81,"WOR_COM_PE":80.19,"WORK_COM":33100}},{"type":"Point","coordinates":[-122.41466429508787,45.546548802908816],"properties":{"id":"41051","lat":45.5465,"lon":-122.4147,"RES_WORK":301631,"NAME":"Multnomah","FIPS":41051,"RES_COM":82411,"RES_TOT":384042,"RES_COM_PE":21.46,"WOR_COM_PE":78.54,"WORK_COM":180591}},{"type":"Point","coordinates":[-118.00898711082702,45.31047189630962],"properties":{"id":"41061","lat":45.3105,"lon":-118.009,"RES_WORK":10137,"NAME":"Union","FIPS":41061,"RES_COM":643,"RES_TOT":10780,"RES_COM_PE":5.96,"WOR_COM_PE":94.04,"WORK_COM":730}},{"type":"Point","coordinates":[-115.65635799541629,46.673612148608264],"properties":{"id":"16035","lat":46.6736,"lon":-115.6564,"RES_WORK":2280,"NAME":"Clearwater","FIPS":16035,"RES_COM":461,"RES_TOT":2741,"RES_COM_PE":16.82,"WOR_COM_PE":83.18,"WORK_COM":731}},{"type":"Point","coordinates":[-116.70927225622366,43.624940644416476],"properties":{"id":"16027","lat":43.6249,"lon":-116.7093,"RES_WORK":48373,"NAME":"Canyon","FIPS":16027,"RES_COM":30818,"RES_TOT":79191,"RES_COM_PE":38.92,"WOR_COM_PE":61.08,"WORK_COM":13322}},{"type":"Point","coordinates":[-113.6011919306826,42.28377238650299],"properties":{"id":"16031","lat":42.2838,"lon":-113.6012,"RES_WORK":7159,"NAME":"Cassia","FIPS":16031,"RES_COM":2356,"RES_TOT":9515,"RES_COM_PE":24.76,"WOR_COM_PE":75.24,"WORK_COM":3393}},{"type":"Point","coordinates":[-119.51122561840249,46.23956001113421],"properties":{"id":"53005","lat":46.2396,"lon":-119.5112,"RES_WORK":64097,"NAME":"Benton","FIPS":53005,"RES_COM":16245,"RES_TOT":80342,"RES_COM_PE":20.22,"WOR_COM_PE":79.78,"WORK_COM":19234}},{"type":"Point","coordinates":[-120.73865531665034,46.456844169603535],"properties":{"id":"53077","lat":46.4568,"lon":-120.7387,"RES_WORK":93481,"NAME":"Yakima","FIPS":53077,"RES_COM":5420,"RES_TOT":98901,"RES_COM_PE":5.48,"WOR_COM_PE":94.52,"WORK_COM":4689}},{"type":"Point","coordinates":[-111.66037960951282,43.7842675416253],"properties":{"id":"16065","lat":43.7843,"lon":-111.6604,"RES_WORK":12502,"NAME":"Madison","FIPS":16065,"RES_COM":2941,"RES_TOT":15443,"RES_COM_PE":19.04,"WOR_COM_PE":80.96,"WORK_COM":4143}},{"type":"Point","coordinates":[-116.70181217361416,47.67428669693035],"properties":{"id":"16055","lat":47.6743,"lon":-116.7018,"RES_WORK":50193,"NAME":"Kootenai","FIPS":16055,"RES_COM":12660,"RES_TOT":62853,"RES_COM_PE":20.14,"WOR_COM_PE":79.86,"WORK_COM":6151}},{"type":"Point","coordinates":[-119.45164284231984,47.2056158026414],"properties":{"id":"53025","lat":47.2056,"lon":-119.4516,"RES_WORK":35142,"NAME":"Grant","FIPS":53025,"RES_COM":2439,"RES_TOT":37581,"RES_COM_PE":6.49,"WOR_COM_PE":93.51,"WORK_COM":4221}},{"type":"Point","coordinates":[-112.53923557249571,42.19492226335974],"properties":{"id":"16071","lat":42.1949,"lon":-112.5392,"RES_WORK":1152,"NAME":"Oneida","FIPS":16071,"RES_COM":106,"RES_TOT":1258,"RES_COM_PE":8.43,"WOR_COM_PE":91.57,"WORK_COM":86}},{"type":"Point","coordinates":[-116.39814418799675,44.060624591995065],"properties":{"id":"16045","lat":44.0606,"lon":-116.3981,"RES_WORK":3155,"NAME":"Gem","FIPS":16045,"RES_COM":2468,"RES_TOT":5623,"RES_COM_PE":43.89,"WOR_COM_PE":56.11,"WORK_COM":714}},{"type":"Point","coordinates":[-111.61478817950456,43.38795312620865],"properties":{"id":"16019","lat":43.388,"lon":-111.6148,"RES_WORK":40597,"NAME":"Bonneville","FIPS":16019,"RES_COM":4929,"RES_TOT":45526,"RES_COM_PE":10.83,"WOR_COM_PE":89.17,"WORK_COM":10941}},{"type":"Point","coordinates":[-121.9147961031721,46.0225844442052],"properties":{"id":"53059","lat":46.0226,"lon":-121.9148,"RES_WORK":2113,"NAME":"Skamania","FIPS":53059,"RES_COM":2399,"RES_TOT":4512,"RES_COM_PE":53.17,"WOR_COM_PE":46.83,"WORK_COM":478}},{"type":"Point","coordinates":[-112.31204439997902,43.82034144213098],"properties":{"id":"16051","lat":43.8203,"lon":-112.312,"RES_WORK":4615,"NAME":"Jefferson","FIPS":16051,"RES_COM":6073,"RES_TOT":10688,"RES_COM_PE":56.82,"WOR_COM_PE":43.18,"WORK_COM":2097}},{"type":"Point","coordinates":[-118.47862406947873,46.22970281933474],"properties":{"id":"53071","lat":46.2297,"lon":-118.4786,"RES_WORK":22801,"NAME":"Walla Walla","FIPS":53071,"RES_COM":2733,"RES_TOT":25534,"RES_COM_PE":10.7,"WOR_COM_PE":89.3,"WORK_COM":6422}},{"type":"Point","coordinates":[-116.65882424156705,47.21687582981486],"properties":{"id":"16009","lat":47.2169,"lon":-116.6588,"RES_WORK":2760,"NAME":"Benewah","FIPS":16009,"RES_COM":609,"RES_TOT":3369,"RES_COM_PE":18.08,"WOR_COM_PE":81.92,"WORK_COM":958}},{"type":"Point","coordinates":[-119.58475307230876,45.41934408884218],"properties":{"id":"41049","lat":45.4193,"lon":-119.5848,"RES_WORK":3427,"NAME":"Morrow","FIPS":41049,"RES_COM":1225,"RES_TOT":4652,"RES_COM_PE":26.33,"WOR_COM_PE":73.67,"WORK_COM":1865}},{"type":"Point","coordinates":[-111.48211435003469,44.22896559974465],"properties":{"id":"16043","lat":44.229,"lon":-111.4821,"RES_WORK":2483,"NAME":"Fremont","FIPS":16043,"RES_COM":2515,"RES_TOT":4998,"RES_COM_PE":50.32,"WOR_COM_PE":49.68,"WORK_COM":975}},{"type":"Point","coordinates":[-116.24130080847102,43.45077194677131],"properties":{"id":"16001","lat":43.4508,"lon":-116.2413,"RES_WORK":181626,"NAME":"Ada","FIPS":16001,"RES_COM":13538,"RES_TOT":195164,"RES_COM_PE":6.94,"WOR_COM_PE":93.06,"WORK_COM":33457}},{"type":"Point","coordinates":[-123.71280246810335,45.46338773510239],"properties":{"id":"41057","lat":45.4634,"lon":-123.7128,"RES_WORK":8782,"NAME":"Tillamook","FIPS":41057,"RES_COM":721,"RES_TOT":9503,"RES_COM_PE":7.59,"WOR_COM_PE":92.41,"WORK_COM":704}},{"type":"Point","coordinates":[-121.22692190267023,43.91464485370067],"properties":{"id":"41017","lat":43.9146,"lon":-121.2269,"RES_WORK":68410,"NAME":"Deschutes","FIPS":41017,"RES_COM":3485,"RES_TOT":71895,"RES_COM_PE":4.85,"WOR_COM_PE":95.15,"WORK_COM":4297}},{"type":"Point","coordinates":[-113.6376367343765,42.85418882783835],"properties":{"id":"16067","lat":42.8542,"lon":-113.6376,"RES_WORK":5754,"NAME":"Minidoka","FIPS":16067,"RES_COM":3177,"RES_TOT":8931,"RES_COM_PE":35.57,"WOR_COM_PE":64.43,"WORK_COM":2250}},{"type":"Point","coordinates":[-112.35194393117949,44.28413465168274],"properties":{"id":"16033","lat":44.2841,"lon":-112.3519,"RES_WORK":239,"NAME":"Clark","FIPS":16033,"RES_COM":185,"RES_TOT":424,"RES_COM_PE":43.63,"WOR_COM_PE":56.37,"WORK_COM":87}},{"type":"Point","coordinates":[-122.48262080245988,45.77929718042662],"properties":{"id":"53011","lat":45.7793,"lon":-122.4826,"RES_WORK":129897,"NAME":"Clark","FIPS":53011,"RES_COM":65740,"RES_TOT":195637,"RES_COM_PE":33.6,"WOR_COM_PE":66.4,"WORK_COM":21344}},{"type":"Point","coordinates":[-123.08914864957376,45.943734300189156],"properties":{"id":"41009","lat":45.9437,"lon":-123.0891,"RES_WORK":8480,"NAME":"Columbia","FIPS":41009,"RES_COM":11220,"RES_TOT":19700,"RES_COM_PE":56.95,"WOR_COM_PE":43.05,"WORK_COM":2344}},{"type":"Point","coordinates":[-115.73017921508242,43.98910092067901],"properties":{"id":"16015","lat":43.9891,"lon":-115.7302,"RES_WORK":1116,"NAME":"Boise","FIPS":16015,"RES_COM":1429,"RES_TOT":2545,"RES_COM_PE":56.15,"WOR_COM_PE":43.85,"WORK_COM":723}},{"type":"Point","coordinates":[-120.02771530621582,44.72618574052574],"properties":{"id":"41069","lat":44.7262,"lon":-120.0277,"RES_WORK":460,"NAME":"Wheeler","FIPS":41069,"RES_COM":87,"RES_TOT":547,"RES_COM_PE":15.9,"WOR_COM_PE":84.1,"WORK_COM":59}},{"type":"Point","coordinates":[-111.20777682548076,43.7598896185124],"properties":{"id":"16081","lat":43.7599,"lon":-111.2078,"RES_WORK":3083,"NAME":"Teton","FIPS":16081,"RES_COM":165,"RES_TOT":3248,"RES_COM_PE":5.08,"WOR_COM_PE":94.92,"WORK_COM":259}},{"type":"Point","coordinates":[-116.16993550011365,42.581364914994076],"properties":{"id":"16073","lat":42.5814,"lon":-116.1699,"RES_WORK":2135,"NAME":"Owyhee","FIPS":16073,"RES_COM":1964,"RES_TOT":4099,"RES_COM_PE":47.91,"WOR_COM_PE":52.09,"WORK_COM":1186}},{"type":"Point","coordinates":[-113.17206348953039,43.72260567273668],"properties":{"id":"16023","lat":43.7226,"lon":-113.1721,"RES_WORK":782,"NAME":"Butte","FIPS":16023,"RES_COM":168,"RES_TOT":950,"RES_COM_PE":17.68,"WOR_COM_PE":82.32,"WORK_COM":1883}},{"type":"Point","coordinates":[-123.59392683520672,47.749006244017615],"properties":{"id":"53031","lat":47.749,"lon":-123.5939,"RES_WORK":9318,"NAME":"Jefferson","FIPS":53031,"RES_COM":1673,"RES_TOT":10991,"RES_COM_PE":15.22,"WOR_COM_PE":84.78,"WORK_COM":1264}},{"type":"Point","coordinates":[-118.4187213100444,47.57626084527806],"properties":{"id":"53043","lat":47.5763,"lon":-118.4187,"RES_WORK":2768,"NAME":"Lincoln","FIPS":53043,"RES_COM":1185,"RES_TOT":3953,"RES_COM_PE":29.98,"WOR_COM_PE":70.02,"WORK_COM":810}},{"type":"Point","coordinates":[-123.19208088085261,47.34801687634657],"properties":{"id":"53045","lat":47.348,"lon":-123.1921,"RES_WORK":12626,"NAME":"Mason","FIPS":53045,"RES_COM":9193,"RES_TOT":21819,"RES_COM_PE":42.13,"WOR_COM_PE":57.87,"WORK_COM":3939}},{"type":"Point","coordinates":[-122.54940357979903,48.163755672279095],"properties":{"id":"53029","lat":48.1638,"lon":-122.5494,"RES_WORK":23694,"NAME":"Island","FIPS":53029,"RES_COM":10875,"RES_TOT":34569,"RES_COM_PE":31.46,"WOR_COM_PE":68.54,"WORK_COM":2358}},{"type":"Point","coordinates":[-123.16656404653605,43.27946157012994],"properties":{"id":"41019","lat":43.2795,"lon":-123.1666,"RES_WORK":35686,"NAME":"Douglas","FIPS":41019,"RES_COM":2529,"RES_TOT":38215,"RES_COM_PE":6.62,"WOR_COM_PE":93.38,"WORK_COM":1955}},{"type":"Point","coordinates":[-119.74079693529067,48.548779967962105],"properties":{"id":"53047","lat":48.5488,"lon":-119.7408,"RES_WORK":15111,"NAME":"Okanogan","FIPS":53047,"RES_COM":1256,"RES_TOT":16367,"RES_COM_PE":7.67,"WOR_COM_PE":92.33,"WORK_COM":1621}},{"type":"Point","coordinates":[-121.72056640042024,48.825644293820986],"properties":{"id":"53073","lat":48.8256,"lon":-121.7206,"RES_WORK":88867,"NAME":"Whatcom","FIPS":53073,"RES_COM":6658,"RES_TOT":95525,"RES_COM_PE":6.97,"WOR_COM_PE":93.03,"WORK_COM":4600}},{"type":"Point","coordinates":[-123.65622249777184,45.99476329995418],"properties":{"id":"41007","lat":45.9948,"lon":-123.6562,"RES_WORK":15783,"NAME":"Clatsop","FIPS":41007,"RES_COM":956,"RES_TOT":16739,"RES_COM_PE":5.71,"WOR_COM_PE":94.29,"WORK_COM":2347}},{"type":"Point","coordinates":[-111.56243343429327,42.77064371212757],"properties":{"id":"16029","lat":42.7706,"lon":-111.5624,"RES_WORK":2759,"NAME":"Caribou","FIPS":16029,"RES_COM":154,"RES_TOT":2913,"RES_COM_PE":5.29,"WOR_COM_PE":94.71,"WORK_COM":708}},{"type":"Point","coordinates":[-122.39186015462349,46.57753542013008],"properties":{"id":"53041","lat":46.5775,"lon":-122.3919,"RES_WORK":21481,"NAME":"Lewis","FIPS":53041,"RES_COM":6858,"RES_TOT":28339,"RES_COM_PE":24.2,"WOR_COM_PE":75.8,"WORK_COM":4967}},{"type":"Point","coordinates":[-118.73661779181327,45.59155776958149],"properties":{"id":"41059","lat":45.5916,"lon":-118.7366,"RES_WORK":26015,"NAME":"Umatilla","FIPS":41059,"RES_COM":5252,"RES_TOT":31267,"RES_COM_PE":16.8,"WOR_COM_PE":83.2,"WORK_COM":4205}},{"type":"Point","coordinates":[-117.18092654637739,45.57977383971521],"properties":{"id":"41063","lat":45.5798,"lon":-117.1809,"RES_WORK":2669,"NAME":"Wallowa","FIPS":41063,"RES_COM":178,"RES_TOT":2847,"RES_COM_PE":6.25,"WOR_COM_PE":93.75,"WORK_COM":170}},{"type":"Point","coordinates":[-123.30777877168886,45.23264570830102],"properties":{"id":"41071","lat":45.2326,"lon":-123.3078,"RES_WORK":28176,"NAME":"Yamhill","FIPS":41071,"RES_COM":14898,"RES_TOT":43074,"RES_COM_PE":34.59,"WOR_COM_PE":65.41,"WORK_COM":7937}},{"type":"Point","coordinates":[-120.38724788078825,42.79301465112297],"properties":{"id":"41037","lat":42.793,"lon":-120.3872,"RES_WORK":2795,"NAME":"Lake","FIPS":41037,"RES_COM":113,"RES_TOT":2908,"RES_COM_PE":3.89,"WOR_COM_PE":96.11,"WORK_COM":200}},{"type":"Point","coordinates":[-123.41313278993037,44.90349374916373],"properties":{"id":"41053","lat":44.9035,"lon":-123.4131,"RES_WORK":13400,"NAME":"Polk","FIPS":41053,"RES_COM":18441,"RES_TOT":31841,"RES_COM_PE":57.92,"WOR_COM_PE":42.08,"WORK_COM":6763}},{"type":"Point","coordinates":[-123.92735777226785,48.04908181599038],"properties":{"id":"53009","lat":48.0491,"lon":-123.9274,"RES_WORK":25556,"NAME":"Clallam","FIPS":53009,"RES_COM":1551,"RES_TOT":27107,"RES_COM_PE":5.72,"WOR_COM_PE":94.28,"WORK_COM":872}},{"type":"Point","coordinates":[-122.7283077062527,42.43212171001165],"properties":{"id":"41029","lat":42.4321,"lon":-122.7283,"RES_WORK":81310,"NAME":"Jackson","FIPS":41029,"RES_COM":3302,"RES_TOT":84612,"RES_COM_PE":3.9,"WOR_COM_PE":96.1,"WORK_COM":4312}},{"type":"Point","coordinates":[-122.68091108221657,46.19345318746049],"properties":{"id":"53015","lat":46.1935,"lon":-122.6809,"RES_WORK":31339,"NAME":"Cowlitz","FIPS":53015,"RES_COM":7940,"RES_TOT":39279,"RES_COM_PE":20.21,"WOR_COM_PE":79.79,"WORK_COM":6870}},{"type":"Point","coordinates":[-117.54487030520195,46.43274654132064],"properties":{"id":"53023","lat":46.4327,"lon":-117.5449,"RES_WORK":566,"NAME":"Garfield","FIPS":53023,"RES_COM":252,"RES_TOT":818,"RES_COM_PE":30.81,"WOR_COM_PE":69.19,"WORK_COM":135}},{"type":"Point","coordinates":[-111.81322616376465,42.18122901418458],"properties":{"id":"16041","lat":42.1812,"lon":-111.8132,"RES_WORK":3005,"NAME":"Franklin","FIPS":16041,"RES_COM":167,"RES_TOT":3172,"RES_COM_PE":5.26,"WOR_COM_PE":94.74,"WORK_COM":112}},{"type":"Point","coordinates":[-115.4695034244351,43.35381780131759],"properties":{"id":"16039","lat":43.3538,"lon":-115.4695,"RES_WORK":9958,"NAME":"Elmore","FIPS":16039,"RES_COM":1448,"RES_TOT":11406,"RES_COM_PE":12.7,"WOR_COM_PE":87.3,"WORK_COM":1071}},{"type":"Point","coordinates":[-121.65140040880823,45.51926529655566],"properties":{"id":"41027","lat":45.5193,"lon":-121.6514,"RES_WORK":9288,"NAME":"Hood River","FIPS":41027,"RES_COM":1734,"RES_TOT":11022,"RES_COM_PE":15.73,"WOR_COM_PE":84.27,"WORK_COM":2893}},{"type":"Point","coordinates":[-117.20266534292786,46.19178013312999],"properties":{"id":"53003","lat":46.1918,"lon":-117.2027,"RES_WORK":3846,"NAME":"Asotin","FIPS":53003,"RES_COM":5291,"RES_TOT":9137,"RES_COM_PE":57.91,"WOR_COM_PE":42.09,"WORK_COM":2385}},{"type":"Point","coordinates":[-118.8985915708165,46.53501341448542],"properties":{"id":"53021","lat":46.535,"lon":-118.8986,"RES_WORK":18676,"NAME":"Franklin","FIPS":53021,"RES_COM":16990,"RES_TOT":35666,"RES_COM_PE":47.64,"WOR_COM_PE":52.36,"WORK_COM":12368}},{"type":"Point","coordinates":[-116.46283331362764,48.76690818683503],"properties":{"id":"16021","lat":48.7669,"lon":-116.4628,"RES_WORK":3127,"NAME":"Boundary","FIPS":16021,"RES_COM":548,"RES_TOT":3675,"RES_COM_PE":14.91,"WOR_COM_PE":85.09,"WORK_COM":187}},{"type":"Point","coordinates":[-111.32950457676252,42.28467292180135],"properties":{"id":"16007","lat":42.2847,"lon":-111.3295,"RES_WORK":1835,"NAME":"Bear Lake","FIPS":16007,"RES_COM":425,"RES_TOT":2260,"RES_COM_PE":18.81,"WOR_COM_PE":81.19,"WORK_COM":45}},{"type":"Point","coordinates":[-123.42847123502109,44.491677858307064],"properties":{"id":"41003","lat":44.4917,"lon":-123.4285,"RES_WORK":30157,"NAME":"Benton","FIPS":41003,"RES_COM":8497,"RES_TOT":38654,"RES_COM_PE":21.98,"WOR_COM_PE":78.02,"WORK_COM":10058}},{"type":"Point","coordinates":[-115.89251631006361,47.353197599839],"properties":{"id":"16079","lat":47.3532,"lon":-115.8925,"RES_WORK":4203,"NAME":"Shoshone","FIPS":16079,"RES_COM":581,"RES_TOT":4784,"RES_COM_PE":12.14,"WOR_COM_PE":87.86,"WORK_COM":802}},{"type":"Point","coordinates":[-118.5164533234933,48.47044494595637],"properties":{"id":"53019","lat":48.4704,"lon":-118.5165,"RES_WORK":1809,"NAME":"Ferry","FIPS":53019,"RES_COM":507,"RES_TOT":2316,"RES_COM_PE":21.89,"WOR_COM_PE":78.11,"WORK_COM":313}},{"type":"Point","coordinates":[-117.40397428482665,47.62070876072051],"properties":{"id":"53063","lat":47.6207,"lon":-117.404,"RES_WORK":198998,"NAME":"Spokane","FIPS":53063,"RES_COM":8586,"RES_TOT":207584,"RES_COM_PE":4.14,"WOR_COM_PE":95.86,"WORK_COM":18328}},{"type":"Point","coordinates":[-117.62305919623384,43.19345095319213],"properties":{"id":"41045","lat":43.1935,"lon":-117.6231,"RES_WORK":8555,"NAME":"Malheur","FIPS":41045,"RES_COM":1742,"RES_TOT":10297,"RES_COM_PE":16.92,"WOR_COM_PE":83.08,"WORK_COM":5301}},{"type":"Point","coordinates":[-122.95346310347428,48.578563256469664],"properties":{"id":"53055","lat":48.5786,"lon":-122.9535,"RES_WORK":6962,"NAME":"San Juan","FIPS":53055,"RES_COM":264,"RES_TOT":7226,"RES_COM_PE":3.65,"WOR_COM_PE":96.35,"WORK_COM":411}},{"type":"Point","coordinates":[-124.0597234307635,43.174172107949694],"properties":{"id":"41011","lat":43.1742,"lon":-124.0597,"RES_WORK":21998,"NAME":"Coos","FIPS":41011,"RES_COM":991,"RES_TOT":22989,"RES_COM_PE":4.31,"WOR_COM_PE":95.69,"WORK_COM":1053}},{"type":"Point","coordinates":[-123.7047228852856,46.55533518041777],"properties":{"id":"53049","lat":46.5553,"lon":-123.7047,"RES_WORK":5490,"NAME":"Pacific","FIPS":53049,"RES_COM":1436,"RES_TOT":6926,"RES_COM_PE":20.73,"WOR_COM_PE":79.27,"WORK_COM":1134}},{"type":"Point","coordinates":[-114.66823241256985,42.356157416008074],"properties":{"id":"16083","lat":42.3562,"lon":-114.6682,"RES_WORK":31190,"NAME":"Twin Falls","FIPS":16083,"RES_COM":3729,"RES_TOT":34919,"RES_COM_PE":10.68,"WOR_COM_PE":89.32,"WORK_COM":4998}},{"type":"Point","coordinates":[-116.71164172588425,46.815616814885516],"properties":{"id":"16057","lat":46.8156,"lon":-116.7116,"RES_WORK":13410,"NAME":"Latah","FIPS":16057,"RES_COM":4736,"RES_TOT":18146,"RES_COM_PE":26.1,"WOR_COM_PE":73.9,"WORK_COM":1904}}]}}}