{"type":"Topology","arcs":[],"objects":{"transit_agencies":{"type":"GeometryCollection","geometries":[{"type":"Point","coordinates":[-122.12675050962089,48.195539705034],"properties":{"ID":1,"OPERATOR":"Stillaguamish Tribe of Indians","CITY":"Arlington","STATE":"WA","TYPE":"Tribal","ORG":"Tribe","VOMS":22,"FIXED":2,"NAME":"Stillaguamish Tribe of Indians","TOTAL":27006,"BUS":0,"DR":27006,"FERRY":0,"LR":0,"SC":0,"OTHER":0,"TOT_FLEET":29,"x1":-122.11,"x2":-122.13,"y2":48.206,"y1":48.186,"CITYSTATE":"Arlington, WA","FIXEDR":"Yes"}},{"type":"Point","coordinates":[-119.12193772882398,46.9744721276055],"properties":{"ID":2,"OPERATOR":"People for People Moses Lake","CITY":"Moses Lake","STATE":"WA","TYPE":"Rural","ORG":"Private-Non-Profit Corporation","VOMS":28,"FIXED":2,"NAME":"People for People Moses Lake","TOTAL":26690,"BUS":12987,"DR":13703,"FERRY":0,"LR":0,"SC":0,"OTHER":0,"TOT_FLEET":40,"x1":-119.11,"x2":-119.13,"y2":46.984,"y1":46.964,"CITYSTATE":"Moses Lake, WA","FIXEDR":"Yes"}},{"type":"Point","coordinates":[-116.78739001542219,47.676546319025746],"properties":{"ID":3,"OPERATOR":"Coeur d'Alene Tribe dba Citylink Transit","CITY":"Worley","STATE":"ID","TYPE":"Tribal","ORG":"Tribe","VOMS":4,"FIXED":1,"NAME":"Citylink","TOTAL":177273,"BUS":170533,"DR":6740,"FERRY":0,"LR":0,"SC":0,"OTHER":0,"TOT_FLEET":12,"x1":-116.77,"x2":-117,"y2":47.752,"y1":47.148,"CITYSTATE":"Worley, ID","FIXEDR":"Yes"}},{"type":"Point","coordinates":[-118.76800077295242,45.67352903949423],"properties":{"ID":4,"OPERATOR":"Confederated Tribes of the Umatilla Indian Reservation","CITY":"Pendleton","STATE":"OR","TYPE":"Tribal","ORG":"Tribe","VOMS":12,"FIXED":1,"NAME":"Kayak Public Transit","TOTAL":66036,"BUS":64594,"DR":1442,"FERRY":0,"LR":0,"SC":0,"OTHER":0,"TOT_FLEET":10,"x1":-118.75,"x2":-119.5,"y2":46.067,"y1":45.319,"CITYSTATE":"Pendleton, OR","FIXEDR":"Yes"}},{"type":"Point","coordinates":[-121.8603217,42.57035935],"properties":{"ID":5,"OPERATOR":"Klamath Tribes","CITY":"Chiloquin","STATE":"OR","TYPE":"Tribal","ORG":"Tribe","VOMS":6,"FIXED":1,"NAME":"Klamath Tribes","TOTAL":12966,"BUS":10600,"DR":2366,"FERRY":0,"LR":0,"SC":0,"OTHER":0,"TOT_FLEET":12,"x1":-121.85,"x2":-121.88,"y2":42.609,"y1":42.171,"CITYSTATE":"Chiloquin, OR","FIXEDR":"Yes"}},{"type":"Point","coordinates":[-118.73428914953203,48.178881134644406],"properties":{"ID":6,"OPERATOR":"Confederated Tribes of the Colville Indian Reservation","CITY":"Nespelem","STATE":"WA","TYPE":"Tribal","ORG":"Tribe","VOMS":6,"FIXED":1,"NAME":"Colville Shuttle","TOTAL":165637,"BUS":4160,"DR":0,"FERRY":161477,"LR":0,"SC":0,"OTHER":0,"TOT_FLEET":6,"x1":-118.72,"x2":-118.15,"y2":48.278,"y1":48.277,"CITYSTATE":"Nespelem, WA","FIXEDR":"Yes"}},{"type":"Point","coordinates":[-117.9885797161702,47.88503470765159],"properties":{"ID":7,"OPERATOR":"Spokane Tribe of Indians","CITY":"Wellpinit","STATE":"WA","TYPE":"Tribal","ORG":"Tribe","VOMS":10,"FIXED":1,"NAME":"Moccasin Express","TOTAL":35797,"BUS":18043,"DR":17754,"FERRY":0,"LR":0,"SC":0,"OTHER":0,"TOT_FLEET":13,"x1":-117.97,"x2":-118.23,"y2":47.981,"y1":47.64,"CITYSTATE":"Wellpinit, WA","FIXEDR":"Yes"}},{"type":"Point","coordinates":[-120.5446196537683,46.404684472015056],"properties":{"ID":8,"OPERATOR":"Confederated Tribes and Bands of The Yakama Nation","CITY":"Toppenish","STATE":"WA","TYPE":"Tribal","ORG":"Tribe","VOMS":7,"FIXED":1,"NAME":"Pahto Passage","TOTAL":33791,"BUS":32998,"DR":793,"FERRY":0,"LR":0,"SC":0,"OTHER":0,"TOT_FLEET":12,"x1":-120.53,"x2":-120.73,"y2":46.449,"y1":46.271,"CITYSTATE":"Toppenish, WA","FIXEDR":"Yes"}},{"type":"Point","coordinates":[-117.29062986473883,48.310857648296704],"properties":{"ID":9,"OPERATOR":"Kalispel Tribe of Indians","CITY":"Usk","STATE":"WA","TYPE":"Tribal","ORG":"Tribe","VOMS":8,"FIXED":1,"NAME":"Kaltran","TOTAL":9331,"BUS":7936,"DR":1395,"FERRY":0,"LR":0,"SC":0,"OTHER":0,"TOT_FLEET":10,"x1":-117.28,"x2":-117.41,"y2":48.739,"y1":47.739,"CITYSTATE":"Usk, WA","FIXEDR":"Yes"}},{"type":"Point","coordinates":[-122.90781497941799,48.30771902409737],"properties":{"ID":10,"OPERATOR":"Washington State Ferries","CITY":"Seattle","STATE":"WA","TYPE":"Urban","ORG":"State Government Unit or Department of Transportation","VOMS":19,"FIXED":1,"NAME":"Washington State Ferries","TOTAL":24089468,"BUS":0,"DR":0,"FERRY":24089468,"LR":0,"SC":0,"OTHER":0,"TOT_FLEET":24,"x1":-122.14,"x2":-123.44,"y2":48.883,"y1":47.013,"CITYSTATE":"Seattle, WA","FIXEDR":"Yes"}},{"type":"Point","coordinates":[-118.07505596705225,45.32645512811683],"properties":{"ID":11,"OPERATOR":"Community Connection of Northeast Oregon","CITY":"LaGrande","STATE":"OR","TYPE":"Rural","ORG":"Private-Non-Profit Corporation","VOMS":26,"FIXED":1,"NAME":"Northeast Oregon Public Transit","TOTAL":77895,"BUS":43693,"DR":34202,"FERRY":0,"LR":0,"SC":0,"OTHER":0,"TOT_FLEET":48,"x1":-118.06,"x2":-118.09,"y2":45.63,"y1":44.762,"CITYSTATE":"LaGrande, OR","FIXEDR":"Yes"}},{"type":"Point","coordinates":[-116.99506597052232,44.02051429579771],"properties":{"ID":12,"OPERATOR":"Malheur Council on Aging and Community Services","CITY":"Ontario","STATE":"OR","TYPE":"Rural","ORG":"Private-Non-Profit Corporation","VOMS":12,"FIXED":1,"NAME":"Malheur Council on Aging And Community Services","TOTAL":52754,"BUS":28745,"DR":24009,"FERRY":0,"LR":0,"SC":0,"OTHER":0,"TOT_FLEET":17,"x1":-116.98,"x2":-117.24,"y2":44.036,"y1":43.876,"CITYSTATE":"Ontario, OR","FIXEDR":"Yes"}},{"type":"Point","coordinates":[-122.86511323007406,45.44651880419347],"properties":{"ID":13,"OPERATOR":"Ride Connection, Inc.","CITY":"Portland","STATE":"OR","TYPE":"Rural","ORG":"Private-Non-Profit Corporation","VOMS":26,"FIXED":1,"NAME":"Ride Connection","TOTAL":43975,"BUS":843,"DR":43132,"FERRY":0,"LR":0,"SC":0,"OTHER":0,"TOT_FLEET":108,"x1":-122.85,"x2":-123.14,"y2":45.619,"y1":45.372,"CITYSTATE":"Portland, OR","FIXEDR":"Yes"}},{"type":"Point","coordinates":[-116.55653893641785,48.27790038193824],"properties":{"ID":14,"OPERATOR":"Selkirks-Pend Oreille Transit Authority (SPOT)","CITY":"Ponderay","STATE":"ID","TYPE":"Rural","ORG":"Private-Non-Profit Corporation","VOMS":5,"FIXED":1,"NAME":"SPOT Transit","TOTAL":76294,"BUS":69092,"DR":7202,"FERRY":0,"LR":0,"SC":0,"OTHER":0,"TOT_FLEET":7,"x1":-116.54,"x2":-116.58,"y2":48.32,"y1":48.261,"CITYSTATE":"Ponderay, ID","FIXEDR":"Yes"}},{"type":"Point","coordinates":[-116.91860036533532,44.02817108989952],"properties":{"ID":15,"OPERATOR":"Treasure Valley Transit","CITY":"Payette","STATE":"ID","TYPE":"Rural","ORG":"Private-Non-Profit Corporation","VOMS":21,"FIXED":1,"NAME":"Snake River Transit Idaho","TOTAL":123622,"BUS":79589,"DR":44033,"FERRY":0,"LR":0,"SC":0,"OTHER":0,"TOT_FLEET":31,"x1":-116.9,"x2":-116.94,"y2":44.096,"y1":44.002,"CITYSTATE":"Payette, ID","FIXEDR":"Yes"}},{"type":"Point","coordinates":[-120.36838953554128,46.45503341243627],"properties":{"ID":16,"OPERATOR":"People for People Yakima","CITY":"Yakima","STATE":"WA","TYPE":"Rural","ORG":"Private-Non-Profit Corporation","VOMS":13,"FIXED":1,"NAME":"Yakima County Community Connector","TOTAL":64397,"BUS":27271,"DR":37126,"FERRY":0,"LR":0,"SC":0,"OTHER":0,"TOT_FLEET":20,"x1":-120.35,"x2":-120.5,"y2":46.606,"y1":46.207,"CITYSTATE":"Yakima, WA","FIXEDR":"Yes"}},{"type":"Point","coordinates":[-116.99231846806886,46.736662991268474],"properties":{"ID":17,"OPERATOR":"SMART Transit","CITY":"Moscow","STATE":"ID","TYPE":"Rural","ORG":"Private-Non-Profit Corporation","VOMS":5,"FIXED":1,"NAME":"SMART Transit","TOTAL":163596,"BUS":151750,"DR":11846,"FERRY":0,"LR":0,"SC":0,"OTHER":0,"TOT_FLEET":12,"x1":-116.98,"x2":-117.03,"y2":46.741,"y1":46.721,"CITYSTATE":"Moscow, ID","FIXEDR":"Yes"}},{"type":"Point","coordinates":[-124.418342,42.41698292],"properties":{"ID":18,"OPERATOR":"Curry County Public Transit Service District","CITY":"Gold Beach","STATE":"OR","TYPE":"Rural","ORG":"Private Provider Reporting on Behalf of a Public Entity","VOMS":10,"FIXED":1,"NAME":"Curry Public Transit","TOTAL":27726,"BUS":13521,"DR":14205,"FERRY":0,"LR":0,"SC":0,"OTHER":0,"TOT_FLEET":19,"x1":-124.4,"x2":-124.49,"y2":43.417,"y1":41.998,"CITYSTATE":"Gold Beach, OR","FIXEDR":"Yes"}},{"type":"Point","coordinates":[-121.3013215,44.05803515],"properties":{"ID":19,"OPERATOR":"Central Oregon Intergovernmental Council","CITY":"Bend","STATE":"OR","TYPE":"Urban","ORG":"MPO, COG or Other Planning Agency","VOMS":47,"FIXED":1,"NAME":"Cascades East Transit","TOTAL":670658,"BUS":564968,"DR":105690,"FERRY":0,"LR":0,"SC":0,"OTHER":0,"TOT_FLEET":56,"x1":-121.29,"x2":-121.67,"y2":44.777,"y1":43.67,"CITYSTATE":"Bend, OR","FIXEDR":"Yes"}},{"type":"Point","coordinates":[-121.75958727413247,42.215024189982564],"properties":{"ID":20,"OPERATOR":"Basin Transit Service","CITY":"Klamath Falls","STATE":"OR","TYPE":"Rural","ORG":"Independent Public Agency or Authority of Transit Service","VOMS":8,"FIXED":1,"NAME":"Basin Transit Service","TOTAL":325710,"BUS":311223,"DR":14487,"FERRY":0,"LR":0,"SC":0,"OTHER":0,"TOT_FLEET":14,"x1":-121.75,"x2":-121.82,"y2":42.254,"y1":42.175,"CITYSTATE":"Klamath Falls, OR","FIXEDR":"Yes"}},{"type":"Point","coordinates":[-119.2411235,46.2398191],"properties":{"ID":21,"OPERATOR":"Ben Franklin Transit","CITY":"Richland","STATE":"WA","TYPE":"Urban","ORG":"Independent Public Agency or Authority of Transit Service","VOMS":431,"FIXED":1,"NAME":"Ben Franklin Transit","TOTAL":3632286,"BUS":2419818,"DR":1212468,"FERRY":0,"LR":0,"SC":0,"OTHER":0,"TOT_FLEET":515,"x1":-119.23,"x2":-119.77,"y2":46.368,"y1":46.142,"CITYSTATE":"Richland, WA","FIXEDR":"Yes"}},{"type":"Point","coordinates":[-111.81825429652991,42.01243958096899],"properties":{"ID":22,"OPERATOR":"Cache Valley Transit District","CITY":"Logan","STATE":"UT","TYPE":"Urban","ORG":"Independent Public Agency or Authority of Transit Service","VOMS":22,"FIXED":1,"NAME":"Cache Valley Transit District","TOTAL":1712623,"BUS":1684722,"DR":27901,"FERRY":0,"LR":0,"SC":0,"OTHER":0,"TOT_FLEET":null,"x1":-111.8,"x2":-111.87,"y2":42.096,"y1":41.999,"CITYSTATE":"Logan, UT","FIXEDR":"Yes"}},{"type":"Point","coordinates":[-122.24480370837698,47.44083883587792],"properties":{"ID":23,"OPERATOR":"Central Puget Sound Regional Transit Authority","CITY":"Seattle","STATE":"WA","TYPE":"Urban","ORG":"Independent Public Agency or Authority of Transit Service","VOMS":371,"FIXED":1,"NAME":"Sound Transit","TOTAL":42732202,"BUS":18470406,"DR":0,"FERRY":0,"LR":19011368,"SC":938315,"OTHER":4312113,"TOT_FLEET":429,"x1":-122.23,"x2":-122.65,"y2":47.98,"y1":47.09,"CITYSTATE":"Seattle, WA","FIXEDR":"Yes"}},{"type":"Point","coordinates":[-123.463002,48.11053644],"properties":{"ID":24,"OPERATOR":"Clallam Transit System","CITY":"Port Angeles","STATE":"WA","TYPE":"Rural","ORG":"Independent Public Agency or Authority of Transit Service","VOMS":58,"FIXED":1,"NAME":"Clallam Transit","TOTAL":899457,"BUS":744366,"DR":155091,"FERRY":0,"LR":0,"SC":0,"OTHER":0,"TOT_FLEET":84,"x1":-123.45,"x2":-124.63,"y2":48.37,"y1":47.89,"CITYSTATE":"Port Angeles, WA","FIXEDR":"Yes"}},{"type":"Point","coordinates":[-122.63658415057834,45.6496497991195],"properties":{"ID":25,"OPERATOR":"Clark County Public Transportation Benefit Area Authority","CITY":"Vancouver","STATE":"WA","TYPE":"Urban","ORG":"Independent Public Agency or Authority of Transit Service","VOMS":176,"FIXED":1,"NAME":"C-Tran","TOTAL":5940495,"BUS":5622099,"DR":318396,"FERRY":0,"LR":0,"SC":0,"OTHER":0,"TOT_FLEET":297,"x1":-122.62,"x2":-122.7,"y2":45.867,"y1":45.494,"CITYSTATE":"Vancouver, WA","FIXEDR":"Yes"}},{"type":"Point","coordinates":[-124.24210509530319,43.39262479650226],"properties":{"ID":26,"OPERATOR":"Coos County Area Transit","CITY":"Coos Bay","STATE":"OR","TYPE":"Rural","ORG":"Independent Public Agency or Authority of Transit Service","VOMS":13,"FIXED":1,"NAME":"Coos County Area Transit","TOTAL":49831,"BUS":30334,"DR":19497,"FERRY":0,"LR":0,"SC":0,"OTHER":0,"TOT_FLEET":21,"x1":-124.23,"x2":-124.32,"y2":43.591,"y1":42.879,"CITYSTATE":"Coos Bay, OR","FIXEDR":"Yes"}},{"type":"Point","coordinates":[-121.52476072947766,45.708203744046386],"properties":{"ID":27,"OPERATOR":"Hood River County Transportation District","CITY":"Hood River","STATE":"OR","TYPE":"Rural","ORG":"Independent Public Agency or Authority of Transit Service","VOMS":9,"FIXED":1,"NAME":"Columbia Area Transit","TOTAL":26420,"BUS":4477,"DR":21943,"FERRY":0,"LR":0,"SC":0,"OTHER":0,"TOT_FLEET":19,"x1":-121.51,"x2":-122.56,"y2":45.713,"y1":45.52,"CITYSTATE":"Hood River, OR","FIXEDR":"Yes"}},{"type":"Point","coordinates":[-122.87334286820892,47.04351292144314],"properties":{"ID":28,"OPERATOR":"Intercity Transit","CITY":"Olympia","STATE":"WA","TYPE":"Urban","ORG":"Independent Public Agency or Authority of Transit Service","VOMS":286,"FIXED":1,"NAME":"Intercity Transit","TOTAL":4889081,"BUS":4113799,"DR":775282,"FERRY":0,"LR":0,"SC":0,"OTHER":0,"TOT_FLEET":462,"x1":-122.86,"x2":-122.97,"y2":47.255,"y1":46.933,"CITYSTATE":"Olympia, WA","FIXEDR":"Yes"}},{"type":"Point","coordinates":[-122.7973436,48.10336283],"properties":{"ID":29,"OPERATOR":"Jefferson Transit","CITY":"Port Townsend","STATE":"WA","TYPE":"Rural","ORG":"Independent Public Agency or Authority of Transit Service","VOMS":14,"FIXED":1,"NAME":"Jefferson Transit","TOTAL":285018,"BUS":260910,"DR":24108,"FERRY":0,"LR":0,"SC":0,"OTHER":0,"TOT_FLEET":38,"x1":-122.78,"x2":-124.42,"y2":48.138,"y1":47.458,"CITYSTATE":"Port Townsend, WA","FIXEDR":"Yes"}},{"type":"Point","coordinates":[-122.6249511,47.563446],"properties":{"ID":30,"OPERATOR":"Kitsap Transit","CITY":"Bremerton","STATE":"WA","TYPE":"Urban","ORG":"Independent Public Agency or Authority of Transit Service","VOMS":257,"FIXED":1,"NAME":"Kitsap Transit","TOTAL":3549994,"BUS":2596174,"DR":466541,"FERRY":487279,"LR":0,"SC":0,"OTHER":0,"TOT_FLEET":390,"x1":-122.61,"x2":-122.71,"y2":47.812,"y1":47.389,"CITYSTATE":"Bremerton, WA","FIXEDR":"Yes"}},{"type":"Point","coordinates":[-123.09415795520515,44.051789892313735],"properties":{"ID":31,"OPERATOR":"Lane Transit District","CITY":"Eugene","STATE":"OR","TYPE":"Urban","ORG":"Independent Public Agency or Authority of Transit Service","VOMS":342,"FIXED":1,"NAME":"Lane Transit District","TOTAL":10710596,"BUS":10163161,"DR":547435,"FERRY":0,"LR":0,"SC":0,"OTHER":0,"TOT_FLEET":191,"x1":-123.08,"x2":-123.35,"y2":44.223,"y1":43.784,"CITYSTATE":"Eugene, OR","FIXEDR":"Yes"}},{"type":"Point","coordinates":[-124.0426235,44.63910989],"properties":{"ID":32,"OPERATOR":"Lincoln County Transportation Service District","CITY":"Newport","STATE":"OR","TYPE":"Rural","ORG":"Independent Public Agency or Authority of Transit Service","VOMS":13,"FIXED":1,"NAME":"Lincoln County Transit","TOTAL":317724,"BUS":255259,"DR":62465,"FERRY":0,"LR":0,"SC":0,"OTHER":0,"TOT_FLEET":21,"x1":-124.03,"x2":-124.1,"y2":45.024,"y1":44.31,"CITYSTATE":"Newport, OR","FIXEDR":"Yes"}},{"type":"Point","coordinates":[-120.31243481531718,47.420846298076704],"properties":{"ID":33,"OPERATOR":"Link Transit","CITY":"Wenatchee","STATE":"WA","TYPE":"Urban","ORG":"Independent Public Agency or Authority of Transit Service","VOMS":44,"FIXED":1,"NAME":"Link Transit","TOTAL":1034597,"BUS":981913,"DR":52684,"FERRY":0,"LR":0,"SC":0,"OTHER":0,"TOT_FLEET":63,"x1":-120.3,"x2":-120.67,"y2":47.886,"y1":47.292,"CITYSTATE":"Wenatchee, WA","FIXEDR":"Yes"}},{"type":"Point","coordinates":[-123.11251990476684,47.217985532461086],"properties":{"ID":34,"OPERATOR":"Mason County Transportation Authority","CITY":"Shelton","STATE":"WA","TYPE":"Rural","ORG":"Independent Public Agency or Authority of Transit Service","VOMS":68,"FIXED":1,"NAME":"Mason Transit Authority","TOTAL":514374,"BUS":438945,"DR":75429,"FERRY":0,"LR":0,"SC":0,"OTHER":0,"TOT_FLEET":99,"x1":-123.1,"x2":-123.2,"y2":47.609,"y1":47.021,"CITYSTATE":"Shelton, WA","FIXEDR":"Yes"}},{"type":"Point","coordinates":[-114.36131744507497,43.66029521931324],"properties":{"ID":35,"OPERATOR":"Mountain Rides Transportation Authority","CITY":"Ketchum","STATE":"ID","TYPE":"Rural","ORG":"Independent Public Agency or Authority of Transit Service","VOMS":28,"FIXED":1,"NAME":"Mountain Rides Transportation Authority","TOTAL":520611,"BUS":480624,"DR":39987,"FERRY":0,"LR":0,"SC":0,"OTHER":0,"TOT_FLEET":37,"x1":-114.35,"x2":-114.4,"y2":43.72,"y1":43.453,"CITYSTATE":"Ketchum, ID","FIXEDR":"Yes"}},{"type":"Point","coordinates":[-123.7346058,46.68472972],"properties":{"ID":36,"OPERATOR":"Pacific Transit","CITY":"Raymond","STATE":"WA","TYPE":"Rural","ORG":"Independent Public Agency or Authority of Transit Service","VOMS":11,"FIXED":1,"NAME":"Pacific Transit","TOTAL":124172,"BUS":109717,"DR":14455,"FERRY":0,"LR":0,"SC":0,"OTHER":0,"TOT_FLEET":16,"x1":-123.72,"x2":-124.05,"y2":46.977,"y1":46.187,"CITYSTATE":"Raymond, WA","FIXEDR":"Yes"}},{"type":"Point","coordinates":[-122.49200208944968,47.2537088733488],"properties":{"ID":37,"OPERATOR":"Pierce County Transportation Benefit Area Authority","CITY":"Tacoma","STATE":"WA","TYPE":"Urban","ORG":"Independent Public Agency or Authority of Transit Service","VOMS":533,"FIXED":1,"NAME":"Pierce Transit","TOTAL":9764786,"BUS":8588447,"DR":1176339,"FERRY":0,"LR":0,"SC":0,"OTHER":0,"TOT_FLEET":653,"x1":-122.48,"x2":-122.62,"y2":47.391,"y1":47.071,"CITYSTATE":"Tacoma, WA","FIXEDR":"Yes"}},{"type":"Point","coordinates":[-117.18089136589552,46.73195502984867],"properties":{"ID":38,"OPERATOR":"Pullman Transit","CITY":"Pullman","STATE":"WA","TYPE":"Rural","ORG":"Independent Public Agency or Authority of Transit Service","VOMS":20,"FIXED":1,"NAME":"Pullman Transit","TOTAL":1341060,"BUS":1319781,"DR":21279,"FERRY":0,"LR":0,"SC":0,"OTHER":0,"TOT_FLEET":29,"x1":-117.17,"x2":-117.2,"y2":46.752,"y1":46.711,"CITYSTATE":"Pullman, WA","FIXEDR":"Yes"}},{"type":"Point","coordinates":[-122.87110506820892,42.327720295000184],"properties":{"ID":39,"OPERATOR":"Rogue Valley Transportation District","CITY":"Medford","STATE":"OR","TYPE":"Urban","ORG":"Independent Public Agency or Authority of Transit Service","VOMS":38,"FIXED":1,"NAME":"Rogue Valley Transporation District","TOTAL":1100273,"BUS":1048592,"DR":51681,"FERRY":0,"LR":0,"SC":0,"OTHER":0,"TOT_FLEET":57,"x1":-122.86,"x2":-122.96,"y2":42.445,"y1":42.175,"CITYSTATE":"Medford, OR","FIXEDR":"Yes"}},{"type":"Point","coordinates":[-123.0359317,44.94112382],"properties":{"ID":40,"OPERATOR":"Salem Area Mass Transit District","CITY":"Salem","STATE":"OR","TYPE":"Urban","ORG":"Independent Public Agency or Authority of Transit Service","VOMS":276,"FIXED":1,"NAME":"Cherriots","TOTAL":3637866,"BUS":2999022,"DR":638844,"FERRY":0,"LR":0,"SC":0,"OTHER":0,"TOT_FLEET":154,"x1":-123.02,"x2":-123.31,"y2":45.312,"y1":44.748,"CITYSTATE":"Salem, OR","FIXEDR":"Yes"}},{"type":"Point","coordinates":[-122.3372148211707,48.445346851337156],"properties":{"ID":41,"OPERATOR":"Skagit Transit","CITY":"Burlington","STATE":"WA","TYPE":"Urban","ORG":"Independent Public Agency or Authority of Transit Service","VOMS":90,"FIXED":1,"NAME":"Skagit Transit","TOTAL":877448,"BUS":695011,"DR":182437,"FERRY":0,"LR":0,"SC":0,"OTHER":0,"TOT_FLEET":119,"x1":-122.32,"x2":-122.68,"y2":48.751,"y1":47.974,"CITYSTATE":"Burlington, WA","FIXEDR":"Yes"}},{"type":"Point","coordinates":[-122.26172766106407,47.83874619423388],"properties":{"ID":42,"OPERATOR":"Snohomish County Public Transportation Benefit Area Corporation","CITY":"Everett","STATE":"WA","TYPE":"Urban","ORG":"Independent Public Agency or Authority of Transit Service","VOMS":609,"FIXED":1,"NAME":"Community Transit","TOTAL":10251998,"BUS":9190047,"DR":1061951,"FERRY":0,"LR":0,"SC":0,"OTHER":0,"TOT_FLEET":816,"x1":-122.25,"x2":-122.38,"y2":48.279,"y1":47.599,"CITYSTATE":"Everett, WA","FIXEDR":"Yes"}},{"type":"Point","coordinates":[-122.57740445173505,45.149513836348476],"properties":{"ID":43,"OPERATOR":"South Clackamas Transportation District","CITY":"Molalla","STATE":"OR","TYPE":"Rural","ORG":"Independent Public Agency or Authority of Transit Service","VOMS":4,"FIXED":1,"NAME":"South Clackamas Transportation District","TOTAL":102953,"BUS":102953,"DR":0,"FERRY":0,"LR":0,"SC":0,"OTHER":0,"TOT_FLEET":6,"x1":-122.56,"x2":-122.69,"y2":45.324,"y1":45.144,"CITYSTATE":"Molalla, OR","FIXEDR":"Yes"}},{"type":"Point","coordinates":[-117.42285696589552,47.655298561654874],"properties":{"ID":44,"OPERATOR":"Spokane Transit Authority","CITY":"Spokane","STATE":"WA","TYPE":"Urban","ORG":"Independent Public Agency or Authority of Transit Service","VOMS":307,"FIXED":1,"NAME":"Spokane Transit Authority","TOTAL":10922108,"BUS":10261816,"DR":660292,"FERRY":0,"LR":0,"SC":0,"OTHER":0,"TOT_FLEET":374,"x1":-117.41,"x2":-117.7,"y2":47.769,"y1":47.476,"CITYSTATE":"Spokane, WA","FIXEDR":"Yes"}},{"type":"Point","coordinates":[-123.8327543,46.18983079],"properties":{"ID":45,"OPERATOR":"Sunset Empire Transportation District","CITY":"Astoria","STATE":"OR","TYPE":"Rural","ORG":"Independent Public Agency or Authority of Transit Service","VOMS":19,"FIXED":1,"NAME":"Sunset Empire Transportation District","TOTAL":209488,"BUS":202495,"DR":6993,"FERRY":0,"LR":0,"SC":0,"OTHER":0,"TOT_FLEET":27,"x1":-123.82,"x2":-123.96,"y2":46.2,"y1":45.862,"CITYSTATE":"Astoria, OR","FIXEDR":"Yes"}},{"type":"Point","coordinates":[-112.05210193179106,43.49256791644152],"properties":{"ID":46,"OPERATOR":"Targhee Regional Public Transit Authority","CITY":"Idaho Falls","STATE":"ID","TYPE":"Urban","ORG":"Independent Public Agency or Authority of Transit Service","VOMS":19,"FIXED":1,"NAME":"Targhee Regional Public Transit Authority","TOTAL":80860,"BUS":33976,"DR":46884,"FERRY":0,"LR":0,"SC":0,"OTHER":0,"TOT_FLEET":45,"x1":-112.04,"x2":-112.09,"y2":43.514,"y1":43.462,"CITYSTATE":"Idaho Falls, ID","FIXEDR":"Yes"}},{"type":"Point","coordinates":[-122.62605673655796,45.50853065055711],"properties":{"ID":47,"OPERATOR":"Tri-County Metropolitan Transportation District of Oregon","CITY":"Portland","STATE":"OR","TYPE":"Urban","ORG":"Independent Public Agency or Authority of Transit Service","VOMS":950,"FIXED":1,"NAME":"Tri-Met","TOTAL":101702561,"BUS":59982440,"DR":1064562,"FERRY":0,"LR":40198185,"SC":0,"OTHER":457374,"TOT_FLEET":1122,"x1":-122.61,"x2":-123.11,"y2":45.639,"y1":45.285,"CITYSTATE":"Portland, OR","FIXEDR":"Yes"}},{"type":"Point","coordinates":[-122.9555185752892,46.71076196031897],"properties":{"ID":48,"OPERATOR":"Twin Transit","CITY":"Centralia","STATE":"WA","TYPE":"Rural","ORG":"Independent Public Agency or Authority of Transit Service","VOMS":9,"FIXED":1,"NAME":"Twin Transit","TOTAL":232097,"BUS":221408,"DR":10689,"FERRY":0,"LR":0,"SC":0,"OTHER":0,"TOT_FLEET":20,"x1":-122.94,"x2":-123,"y2":46.762,"y1":46.627,"CITYSTATE":"Centralia, WA","FIXEDR":"Yes"}},{"type":"Point","coordinates":[-116.3898367,43.6104401],"properties":{"ID":49,"OPERATOR":"Valley Regional Transit","CITY":"Meridian","STATE":"ID","TYPE":"Urban","ORG":"Independent Public Agency or Authority of Transit Service","VOMS":60,"FIXED":1,"NAME":"Valley Ride","TOTAL":1424738,"BUS":1367634,"DR":57104,"FERRY":0,"LR":0,"SC":0,"OTHER":0,"TOT_FLEET":78,"x1":-116.38,"x2":-116.7,"y2":43.706,"y1":43.545,"CITYSTATE":"Meridian, ID","FIXEDR":"Yes"}},{"type":"Point","coordinates":[-118.3622484,46.0590639],"properties":{"ID":50,"OPERATOR":"Valley Transit","CITY":"Walla Walla","STATE":"WA","TYPE":"Urban","ORG":"Independent Public Agency or Authority of Transit Service","VOMS":21,"FIXED":1,"NAME":"Valley Transit","TOTAL":720383,"BUS":667666,"DR":52717,"FERRY":0,"LR":0,"SC":0,"OTHER":0,"TOT_FLEET":36,"x1":-118.35,"x2":-118.39,"y2":46.083,"y1":46.027,"CITYSTATE":"Walla Walla, WA","FIXEDR":"Yes"}},{"type":"Point","coordinates":[-122.47125611055033,48.750781935475274],"properties":{"ID":51,"OPERATOR":"Whatcom Transportation Authority","CITY":"Bellingham","STATE":"WA","TYPE":"Urban","ORG":"Independent Public Agency or Authority of Transit Service","VOMS":101,"FIXED":1,"NAME":"Whatcom Transportation Authority","TOTAL":4968178,"BUS":4701668,"DR":266510,"FERRY":0,"LR":0,"SC":0,"OTHER":0,"TOT_FLEET":151,"x1":-122.46,"x2":-122.76,"y2":49,"y1":48.417,"CITYSTATE":"Bellingham, WA","FIXEDR":"Yes"}},{"type":"Point","coordinates":[-122.6427737,48.20796915],"properties":{"ID":52,"OPERATOR":"Island Transit","CITY":"Coupeville","STATE":"WA","TYPE":"Rural","ORG":"Independent Public Agency or Authority of Transit Service","VOMS":113,"FIXED":1,"NAME":"Island Transit","TOTAL":860811,"BUS":613033,"DR":247778,"FERRY":0,"LR":0,"SC":0,"OTHER":0,"TOT_FLEET":179,"x1":-122.63,"x2":-122.75,"y2":48.464,"y1":47.923,"CITYSTATE":"Coupeville, WA","FIXEDR":"Yes"}},{"type":"Point","coordinates":[-124.10512460578347,43.98183785522855],"properties":{"ID":53,"OPERATOR":"City of Florence","CITY":"Florence","STATE":"OR","TYPE":"Rural","ORG":"Independent Public Agency or Authority of Transit Service","VOMS":2,"FIXED":1,"NAME":"Rhody Express","TOTAL":7388,"BUS":6472,"DR":916,"FERRY":0,"LR":0,"SC":0,"OTHER":0,"TOT_FLEET":2,"x1":-124.09,"x2":-124.12,"y2":44.009,"y1":43.966,"CITYSTATE":"Florence, OR","FIXEDR":"Yes"}},{"type":"Point","coordinates":[-119.27688739652992,47.13100675809266],"properties":{"ID":54,"OPERATOR":"Grant County Transportation Authority","CITY":"Moses Lake","STATE":"WA","TYPE":"Rural","ORG":"Independent Public Agency or Authority of Transit Service","VOMS":35,"FIXED":1,"NAME":"Grant County Transportation Authority","TOTAL":271518,"BUS":211288,"DR":60230,"FERRY":0,"LR":0,"SC":0,"OTHER":0,"TOT_FLEET":88,"x1":-119.26,"x2":-119.97,"y2":47.966,"y1":46.81,"CITYSTATE":"Moses Lake, WA","FIXEDR":"Yes"}},{"type":"Point","coordinates":[-123.38720655411852,46.21497652072529],"properties":{"ID":55,"OPERATOR":"Wahkiakum County Health & Human Services","CITY":"Cathlamet","STATE":"WA","TYPE":"Rural","ORG":"Independent Public Agency or Authority of Transit Service","VOMS":4,"FIXED":1,"NAME":"Wahkiakum On the Move","TOTAL":8673,"BUS":6183,"DR":2490,"FERRY":0,"LR":0,"SC":0,"OTHER":0,"TOT_FLEET":8,"x1":-123.37,"x2":-123.8,"y2":46.377,"y1":46.116,"CITYSTATE":"Cathlamet, WA","FIXEDR":"Yes"}},{"type":"Point","coordinates":[-117.06501413294775,46.41281989843159],"properties":{"ID":56,"OPERATOR":"Asotin County PTBA","CITY":"Clarkston","STATE":"WA","TYPE":"Urban","ORG":"City, County or Local Government Unit or Department of Transportation","VOMS":13,"FIXED":1,"NAME":"Asotin County PTBA","TOTAL":86826,"BUS":54877,"DR":31949,"FERRY":0,"LR":0,"SC":0,"OTHER":0,"TOT_FLEET":21,"x1":-117.05,"x2":-117.08,"y2":46.422,"y1":46.385,"CITYSTATE":"Clarkston, WA","FIXEDR":"Yes"}},{"type":"Point","coordinates":[-123.38627862457075,44.54299036089811],"properties":{"ID":57,"OPERATOR":"Benton County","CITY":"Corvallis","STATE":"OR","TYPE":"Urban","ORG":"City, County or Local Government Unit or Department of Transportation","VOMS":21,"FIXED":1,"NAME":"Benton County Transportation","TOTAL":87347,"BUS":9393,"DR":77954,"FERRY":0,"LR":0,"SC":0,"OTHER":0,"TOT_FLEET":42,"x1":-123.37,"x2":-124.06,"y2":44.68,"y1":44.539,"CITYSTATE":"Corvallis, OR","FIXEDR":"Yes"}},{"type":"Point","coordinates":[-123.1069105,44.63504189],"properties":{"ID":58,"OPERATOR":"City of Albany","CITY":"Albany","STATE":"OR","TYPE":"Urban","ORG":"City, County or Local Government Unit or Department of Transportation","VOMS":13,"FIXED":1,"NAME":"Albany Transit System","TOTAL":209310,"BUS":190964,"DR":18346,"FERRY":0,"LR":0,"SC":0,"OTHER":0,"TOT_FLEET":17,"x1":-123.09,"x2":-123.27,"y2":44.645,"y1":44.389,"CITYSTATE":"Albany, OR","FIXEDR":"Yes"}},{"type":"Point","coordinates":[-122.6917761811427,45.263455598173124],"properties":{"ID":59,"OPERATOR":"City of Canby","CITY":"Canby","STATE":"OR","TYPE":"Rural","ORG":"City, County or Local Government Unit or Department of Transportation","VOMS":8,"FIXED":1,"NAME":"Canby Area Transit","TOTAL":90260,"BUS":74685,"DR":15575,"FERRY":0,"LR":0,"SC":0,"OTHER":0,"TOT_FLEET":19,"x1":-122.68,"x2":-122.83,"y2":45.361,"y1":45.151,"CITYSTATE":"Canby, OR","FIXEDR":"Yes"}},{"type":"Point","coordinates":[-123.268633,44.561601],"properties":{"ID":60,"OPERATOR":"City of Corvallis","CITY":"Corvallis","STATE":"OR","TYPE":"Urban","ORG":"City, County or Local Government Unit or Department of Transportation","VOMS":11,"FIXED":1,"NAME":"Corvallis Transit System","TOTAL":1157896,"BUS":1157896,"DR":0,"FERRY":0,"LR":0,"SC":0,"OTHER":0,"TOT_FLEET":16,"x1":-123.25,"x2":-123.37,"y2":44.615,"y1":44.531,"CITYSTATE":"Corvallis, OR","FIXEDR":"Yes"}},{"type":"Point","coordinates":[-123.0629592,43.79736619],"properties":{"ID":61,"OPERATOR":"City of Cottage Grove","CITY":"Cottage Grove","STATE":"OR","TYPE":"Rural","ORG":"City, County or Local Government Unit or Department of Transportation","VOMS":10,"FIXED":1,"NAME":"South Lane Wheels","TOTAL":12111,"BUS":4959,"DR":7152,"FERRY":0,"LR":0,"SC":0,"OTHER":0,"TOT_FLEET":0,"x1":-123.05,"x2":-123.07,"y2":43.807,"y1":43.78,"CITYSTATE":"Cottage Grove, OR","FIXEDR":"Yes"}},{"type":"Point","coordinates":[-118.3848714,45.92795624],"properties":{"ID":62,"OPERATOR":"City of Milton-Freewater","CITY":"MiltonFreewater","STATE":"OR","TYPE":"Urban","ORG":"City, County or Local Government Unit or Department of Transportation","VOMS":2,"FIXED":1,"NAME":"City of Milton-Freewater","TOTAL":10491,"BUS":5637,"DR":4854,"FERRY":0,"LR":0,"SC":0,"OTHER":0,"TOT_FLEET":2,"x1":-118.37,"x2":-118.39,"y2":46.066,"y1":45.916,"CITYSTATE":"MiltonFreewater, OR","FIXEDR":"Yes"}},{"type":"Point","coordinates":[-112.4485968,42.87387464],"properties":{"ID":63,"OPERATOR":"City of Pocatello","CITY":"Pocatello","STATE":"ID","TYPE":"Urban","ORG":"City, County or Local Government Unit or Department of Transportation","VOMS":28,"FIXED":1,"NAME":"Pocatello Regional Transit","TOTAL":321054,"BUS":238400,"DR":82654,"FERRY":0,"LR":0,"SC":0,"OTHER":0,"TOT_FLEET":42,"x1":-112.43,"x2":-112.49,"y2":43.199,"y1":42.808,"CITYSTATE":"Pocatello, ID","FIXEDR":"Yes"}},{"type":"Point","coordinates":[-122.26705526358214,45.394520283273806],"properties":{"ID":64,"OPERATOR":"City of Sandy","CITY":"Sandy","STATE":"OR","TYPE":"Rural","ORG":"City, County or Local Government Unit or Department of Transportation","VOMS":6,"FIXED":1,"NAME":"Sandy Transit","TOTAL":124550,"BUS":108215,"DR":16335,"FERRY":0,"LR":0,"SC":0,"OTHER":0,"TOT_FLEET":0,"x1":-122.25,"x2":-122.42,"y2":45.503,"y1":45.286,"CITYSTATE":"Sandy, OR","FIXEDR":"Yes"}},{"type":"Point","coordinates":[-122.8591628,45.14203337],"properties":{"ID":65,"OPERATOR":"City of Woodburn","CITY":"Woodburn","STATE":"OR","TYPE":"Rural","ORG":"City, County or Local Government Unit or Department of Transportation","VOMS":10,"FIXED":1,"NAME":"Woodburn Transit","TOTAL":39059,"BUS":31046,"DR":8013,"FERRY":0,"LR":0,"SC":0,"OTHER":0,"TOT_FLEET":10,"x1":-122.84,"x2":-122.89,"y2":45.157,"y1":45.136,"CITYSTATE":"Woodburn, OR","FIXEDR":"Yes"}},{"type":"Point","coordinates":[-122.7972002,45.86353449],"properties":{"ID":66,"OPERATOR":"Columbia County","CITY":"St. Helens","STATE":"OR","TYPE":"Rural","ORG":"City, County or Local Government Unit or Department of Transportation","VOMS":30,"FIXED":1,"NAME":"Columbia County Rider","TOTAL":92347,"BUS":76530,"DR":15817,"FERRY":0,"LR":0,"SC":0,"OTHER":0,"TOT_FLEET":36,"x1":-122.78,"x2":-123.23,"y2":46.147,"y1":45.514,"CITYSTATE":"St. Helens, OR","FIXEDR":"Yes"}},{"type":"Point","coordinates":[-123.3514892,43.2129459],"properties":{"ID":67,"OPERATOR":"Douglas County","CITY":"Roseburg","STATE":"OR","TYPE":"Rural","ORG":"City, County or Local Government Unit or Department of Transportation","VOMS":25,"FIXED":1,"NAME":"Umpqua Transit","TOTAL":179133,"BUS":131216,"DR":47917,"FERRY":0,"LR":0,"SC":0,"OTHER":0,"TOT_FLEET":0,"x1":-123.34,"x2":-123.43,"y2":43.397,"y1":42.92,"CITYSTATE":"Roseburg, OR","FIXEDR":"Yes"}},{"type":"Point","coordinates":[-122.19902945057835,47.97735881921216],"properties":{"ID":68,"OPERATOR":"Everett Transit","CITY":"Everett","STATE":"WA","TYPE":"Urban","ORG":"City, County or Local Government Unit or Department of Transportation","VOMS":58,"FIXED":1,"NAME":"Everett Transit","TOTAL":2067142,"BUS":1948785,"DR":118357,"FERRY":0,"LR":0,"SC":0,"OTHER":0,"TOT_FLEET":71,"x1":-122.18,"x2":-122.3,"y2":48.018,"y1":47.879,"CITYSTATE":"Everett, WA","FIXEDR":"Yes"}},{"type":"Point","coordinates":[-118.94538428468282,44.41408131360566],"properties":{"ID":69,"OPERATOR":"Grant County Transportation District","CITY":"John Day","STATE":"OR","TYPE":"Rural","ORG":"City, County or Local Government Unit or Department of Transportation","VOMS":7,"FIXED":1,"NAME":"People Mover","TOTAL":37286,"BUS":1597,"DR":35689,"FERRY":0,"LR":0,"SC":0,"OTHER":0,"TOT_FLEET":9,"x1":-118.93,"x2":-121.3,"y2":46.056,"y1":43.573,"CITYSTATE":"John Day, OR","FIXEDR":"Yes"}},{"type":"Point","coordinates":[-123.8562014,46.97190772],"properties":{"ID":70,"OPERATOR":"Grays Harbor Transit","CITY":"Hoquiam","STATE":"WA","TYPE":"Rural","ORG":"City, County or Local Government Unit or Department of Transportation","VOMS":52,"FIXED":1,"NAME":"Grays Harbor Transit","TOTAL":832527,"BUS":668242,"DR":164285,"FERRY":0,"LR":0,"SC":0,"OTHER":0,"TOT_FLEET":75,"x1":-123.84,"x2":-124.29,"y2":47.481,"y1":46.68,"CITYSTATE":"Hoquiam, WA","FIXEDR":"Yes"}},{"type":"Point","coordinates":[-123.32641098590953,42.439115539683435],"properties":{"ID":71,"OPERATOR":"Josephine County","CITY":"Grants Pass","STATE":"OR","TYPE":"Urban","ORG":"City, County or Local Government Unit or Department of Transportation","VOMS":16,"FIXED":1,"NAME":"Josephine Community Transit","TOTAL":213416,"BUS":197521,"DR":15895,"FERRY":0,"LR":0,"SC":0,"OTHER":0,"TOT_FLEET":31,"x1":-123.31,"x2":-123.65,"y2":42.695,"y1":42.163,"CITYSTATE":"Grants Pass, OR","FIXEDR":"Yes"}},{"type":"Point","coordinates":[-122.30581573710127,47.57602472626514],"properties":{"ID":72,"OPERATOR":"King County Department of Transportation","CITY":"Seattle","STATE":"WA","TYPE":"Urban","ORG":"City, County or Local Government Unit or Department of Transportation","VOMS":2818,"FIXED":1,"NAME":"Metro Transit","TOTAL":127384761,"BUS":120902543,"DR":4521979,"FERRY":601942,"LR":0,"SC":1358297,"OTHER":0,"TOT_FLEET":3792,"x1":-122.29,"x2":-122.5,"y2":47.934,"y1":47.188,"CITYSTATE":"Seattle, WA","FIXEDR":"Yes"}},{"type":"Point","coordinates":[-117.01763445390839,46.413382359108304],"properties":{"ID":73,"OPERATOR":"Lewiston Transit System","CITY":"Lewiston","STATE":"ID","TYPE":"Urban","ORG":"City, County or Local Government Unit or Department of Transportation","VOMS":4,"FIXED":1,"NAME":"Lewiston Transit System","TOTAL":49092,"BUS":45062,"DR":4030,"FERRY":0,"LR":0,"SC":0,"OTHER":0,"TOT_FLEET":8,"x1":-117,"x2":-117.03,"y2":46.425,"y1":46.373,"CITYSTATE":"Lewiston, ID","FIXEDR":"Yes"}},{"type":"Point","coordinates":[-121.62508864052063,42.07031279449115],"properties":{"ID":74,"OPERATOR":"Modoc Transportation Agency","CITY":"Alturas","STATE":"CA","TYPE":"Rural","ORG":"City, County or Local Government Unit or Department of Transportation","VOMS":3,"FIXED":1,"NAME":"Sage Stage","TOTAL":15674,"BUS":11778,"DR":3896,"FERRY":0,"LR":0,"SC":0,"OTHER":0,"TOT_FLEET":null,"x1":-121.61,"x2":-121.8,"y2":42.228,"y1":41.998,"CITYSTATE":"Alturas, CA","FIXEDR":"Yes"}},{"type":"Point","coordinates":[-119.59077837283571,48.356042999365656],"properties":{"ID":75,"OPERATOR":"Okanogan Transit","CITY":"Omak","STATE":"WA","TYPE":"Rural","ORG":"City, County or Local Government Unit or Department of Transportation","VOMS":17,"FIXED":1,"NAME":"Transit for Greater Okanogan","TOTAL":60500,"BUS":30495,"DR":30005,"FERRY":0,"LR":0,"SC":0,"OTHER":0,"TOT_FLEET":25,"x1":-119.58,"x2":-120.18,"y2":48.947,"y1":48.045,"CITYSTATE":"Omak, WA","FIXEDR":"Yes"}},{"type":"Point","coordinates":[-122.93750833785467,46.135263068651945],"properties":{"ID":76,"OPERATOR":"RiverCities Transit","CITY":"Longview","STATE":"WA","TYPE":"Urban","ORG":"City, County or Local Government Unit or Department of Transportation","VOMS":23,"FIXED":1,"NAME":"RiverCities Transit","TOTAL":447099,"BUS":396896,"DR":50203,"FERRY":0,"LR":0,"SC":0,"OTHER":0,"TOT_FLEET":37,"x1":-122.92,"x2":-123.03,"y2":46.176,"y1":46.12,"CITYSTATE":"Longview, WA","FIXEDR":"Yes"}},{"type":"Point","coordinates":[-122.760951,45.30633566],"properties":{"ID":77,"OPERATOR":"South Metro Area Regional Transit","CITY":"Wilsonville","STATE":"OR","TYPE":"Urban","ORG":"City, County or Local Government Unit or Department of Transportation","VOMS":18,"FIXED":1,"NAME":"South Metro Area Regional Transit","TOTAL":317676,"BUS":287176,"DR":30500,"FERRY":0,"LR":0,"SC":0,"OTHER":0,"TOT_FLEET":32,"x1":-122.75,"x2":-123.03,"y2":45.455,"y1":44.937,"CITYSTATE":"Wilsonville, OR","FIXEDR":"Yes"}},{"type":"Point","coordinates":[-123.8253842,45.4563855],"properties":{"ID":78,"OPERATOR":"Tillamook County Transportation District","CITY":"Tillamook","STATE":"OR","TYPE":"Rural","ORG":"City, County or Local Government Unit or Department of Transportation","VOMS":18,"FIXED":1,"NAME":"Tillamook County Transportation District","TOTAL":143981,"BUS":126953,"DR":17028,"FERRY":0,"LR":0,"SC":0,"OTHER":0,"TOT_FLEET":32,"x1":-123.81,"x2":-124.01,"y2":45.899,"y1":44.924,"CITYSTATE":"Tillamook, OR","FIXEDR":"Yes"}},{"type":"Point","coordinates":[-120.5199471565019,46.59995556146083],"properties":{"ID":79,"OPERATOR":"Yakima Transit","CITY":"Yakima","STATE":"WA","TYPE":"Urban","ORG":"City, County or Local Government Unit or Department of Transportation","VOMS":63,"FIXED":1,"NAME":"Yakima Transit","TOTAL":1185587,"BUS":1057355,"DR":128232,"FERRY":0,"LR":0,"SC":0,"OTHER":0,"TOT_FLEET":74,"x1":-120.51,"x2":-120.63,"y2":47.003,"y1":46.563,"CITYSTATE":"Yakima, WA","FIXEDR":"Yes"}},{"type":"Point","coordinates":[-123.1922063,45.21153973],"properties":{"ID":80,"OPERATOR":"Yamhill County","CITY":"McMinnville","STATE":"OR","TYPE":"Rural","ORG":"City, County or Local Government Unit or Department of Transportation","VOMS":16,"FIXED":1,"NAME":"Yamhill County Transit","TOTAL":289271,"BUS":245905,"DR":43366,"FERRY":0,"LR":0,"SC":0,"OTHER":0,"TOT_FLEET":0,"x1":-123.18,"x2":-123.61,"y2":45.523,"y1":44.95,"CITYSTATE":"McMinnville, OR","FIXEDR":"Yes"}},{"type":"Point","coordinates":[-122.6790199,45.51766358363412],"properties":{"ID":81,"OPERATOR":"City of Portland","CITY":"Portland","STATE":"OR","TYPE":"Urban","ORG":"City, County or Local Government Unit or Department of Transportation","VOMS":16,"FIXED":1,"NAME":"City of Portland","TOTAL":6416746,"BUS":0,"DR":0,"FERRY":0,"LR":0,"SC":4313571,"OTHER":2103175,"TOT_FLEET":19,"x1":-122.66,"x2":-122.69,"y2":45.535,"y1":45.494,"CITYSTATE":"Portland, OR","FIXEDR":"Yes"}},{"type":"Point","coordinates":[-122.34337415942865,47.616525335268015],"properties":{"ID":82,"OPERATOR":"Seattle Center Monorail Transit","CITY":"Seattle","STATE":"WA","TYPE":"Urban","ORG":"City, County or Local Government Unit or Department of Transportation","VOMS":8,"FIXED":1,"NAME":"Seattle Center Monorail Transit","TOTAL":2243329,"BUS":0,"DR":0,"FERRY":0,"LR":0,"SC":0,"OTHER":2243329,"TOT_FLEET":null,"x1":-122.33,"x2":-122.35,"y2":47.621,"y1":47.612,"CITYSTATE":"Seattle, WA","FIXEDR":"Yes"}},{"type":"Point","coordinates":[-122.60471377977589,47.17367754454465],"properties":{"ID":83,"OPERATOR":"Pierce County Ferry Operations","CITY":"Tacoma","STATE":"WA","TYPE":"Urban","ORG":"City, County or Local Government Unit or Department of Transportation","VOMS":2,"FIXED":1,"NAME":"Steilacoom to Anderson Island","TOTAL":405581,"BUS":0,"DR":0,"FERRY":405581,"LR":0,"SC":0,"OTHER":0,"TOT_FLEET":2,"x1":-122.59,"x2":-122.67,"y2":47.181,"y1":47.173,"CITYSTATE":"Tacoma, WA","FIXEDR":"Yes"}},{"type":"Point","coordinates":[-115.9218369,47.47152031],"properties":{"ID":84,"OPERATOR":"Shoshone County","CITY":"Wallace","STATE":"ID","TYPE":"Rural","ORG":"City, County or Local Government Unit or Department of Transportation","VOMS":2,"FIXED":1,"NAME":"Silver Express","TOTAL":18658,"BUS":16130,"DR":2528,"FERRY":0,"LR":0,"SC":0,"OTHER":0,"TOT_FLEET":0,"x1":-115.91,"x2":-116.27,"y2":47.549,"y1":47.461,"CITYSTATE":"Wallace, ID","FIXEDR":"Yes"}},{"type":"Point","coordinates":[-123.91452825057834,44.72717785284804],"properties":{"ID":85,"OPERATOR":"Confederated Tribes of Siletz Indians","CITY":"Siletz","STATE":"OR","TYPE":"Tribal","ORG":"Tribe","VOMS":0,"FIXED":0,"NAME":"Confederated Tribes of Siletz Indians","TOTAL":0,"BUS":0,"DR":0,"FERRY":0,"LR":0,"SC":0,"OTHER":0,"TOT_FLEET":null,"x1":-123.9,"x2":-123.92,"y2":44.737,"y1":44.717,"CITYSTATE":"Siletz, OR","FIXEDR":"No"}},{"type":"Point","coordinates":[-123.61396536242545,45.07568716294104],"properties":{"ID":86,"OPERATOR":"Confederated Tribes of the Grand Ronde Community of Oregon","CITY":"Grand Ronde","STATE":"OR","TYPE":"Tribal","ORG":"Tribe","VOMS":0,"FIXED":0,"NAME":"Confederated Tribes of the Grand Ronde Community of Oregon","TOTAL":0,"BUS":0,"DR":0,"FERRY":0,"LR":0,"SC":0,"OTHER":0,"TOT_FLEET":null,"x1":-123.6,"x2":-123.62,"y2":45.086,"y1":45.066,"CITYSTATE":"Grand Ronde, OR","FIXEDR":"No"}},{"type":"Point","coordinates":[-121.33877873526114,44.8132774989568],"properties":{"ID":87,"OPERATOR":"Confederated Tribes of Warm Springs","CITY":"Warm Springs","STATE":"OR","TYPE":"Tribal","ORG":"Tribe","VOMS":0,"FIXED":0,"NAME":"Confederated Tribes of Warm Springs","TOTAL":0,"BUS":0,"DR":0,"FERRY":0,"LR":0,"SC":0,"OTHER":0,"TOT_FLEET":null,"x1":-121.32,"x2":-121.34,"y2":44.823,"y1":44.803,"CITYSTATE":"Warm Springs, OR","FIXEDR":"No"}},{"type":"Point","coordinates":[-123.04948289060636,46.19730347389835],"properties":{"ID":88,"OPERATOR":"Cowlitz Indian Tribe","CITY":"Longview","STATE":"WA","TYPE":"Tribal","ORG":"Tribe","VOMS":5,"FIXED":0,"NAME":"Cowlitz Indian Tribe","TOTAL":5452,"BUS":0,"DR":5452,"FERRY":0,"LR":0,"SC":0,"OTHER":0,"TOT_FLEET":5,"x1":-123.03,"x2":-123.05,"y2":46.207,"y1":46.187,"CITYSTATE":"Longview, WA","FIXEDR":"No"}},{"type":"Point","coordinates":[-122.996515,48.0245936],"properties":{"ID":89,"OPERATOR":"Jamestown S'Klallam Tribe","CITY":"Sequim","STATE":"WA","TYPE":"Tribal","ORG":"Tribe","VOMS":0,"FIXED":0,"NAME":"Jamestown S'Klallam Tribe","TOTAL":0,"BUS":0,"DR":0,"FERRY":0,"LR":0,"SC":0,"OTHER":0,"TOT_FLEET":null,"x1":-122.98,"x2":-123,"y2":48.035,"y1":48.015,"CITYSTATE":"Sequim, WA","FIXEDR":"No"}},{"type":"Point","coordinates":[-123.5475661,48.14424163],"properties":{"ID":90,"OPERATOR":"Lower Elwha Klallam Tribe","CITY":"Port Angeles","STATE":"WA","TYPE":"Tribal","ORG":"Tribe","VOMS":1,"FIXED":0,"NAME":"Lower Elwha Klallam Tribe","TOTAL":1028,"BUS":1028,"DR":0,"FERRY":0,"LR":0,"SC":0,"OTHER":0,"TOT_FLEET":1,"x1":-123.53,"x2":-123.55,"y2":48.154,"y1":48.134,"CITYSTATE":"Port Angeles, WA","FIXEDR":"No"}},{"type":"Point","coordinates":[-122.6358456,48.7940445],"properties":{"ID":91,"OPERATOR":"Lummi Nation","CITY":"Bellingham","STATE":"WA","TYPE":"Tribal","ORG":"Tribe","VOMS":2,"FIXED":0,"NAME":"Lummi Nation","TOTAL":49010,"BUS":49010,"DR":0,"FERRY":0,"LR":0,"SC":0,"OTHER":0,"TOT_FLEET":5,"x1":-122.62,"x2":-122.64,"y2":48.804,"y1":48.784,"CITYSTATE":"Bellingham, WA","FIXEDR":"No"}},{"type":"Point","coordinates":[-124.6277735,48.33395281],"properties":{"ID":92,"OPERATOR":"Makah Tribal Council","CITY":"Neah Bay","STATE":"WA","TYPE":"Tribal","ORG":"Tribe","VOMS":1,"FIXED":0,"NAME":"Makah Tribal Council","TOTAL":7307,"BUS":7307,"DR":0,"FERRY":0,"LR":0,"SC":0,"OTHER":0,"TOT_FLEET":2,"x1":-124.61,"x2":-124.63,"y2":48.344,"y1":48.324,"CITYSTATE":"Neah Bay, WA","FIXEDR":"No"}},{"type":"Point","coordinates":[-122.1303671,47.28755846],"properties":{"ID":93,"OPERATOR":"Muckleshoot Indian Tribe","CITY":"Auburn","STATE":"WA","TYPE":"Tribal","ORG":"Tribe","VOMS":0,"FIXED":0,"NAME":"Muckleshoot Indian Tribe","TOTAL":0,"BUS":0,"DR":0,"FERRY":0,"LR":0,"SC":0,"OTHER":0,"TOT_FLEET":null,"x1":-122.12,"x2":-122.14,"y2":47.298,"y1":47.278,"CITYSTATE":"Auburn, WA","FIXEDR":"No"}},{"type":"Point","coordinates":[-116.7730691,46.35479799],"properties":{"ID":94,"OPERATOR":"Nez Perce Tribe","CITY":"Lapwai","STATE":"ID","TYPE":"Tribal","ORG":"Tribe","VOMS":4,"FIXED":0,"NAME":"Nez Perce Tribe","TOTAL":17600,"BUS":17425,"DR":175,"FERRY":0,"LR":0,"SC":0,"OTHER":0,"TOT_FLEET":9,"x1":-116.76,"x2":-116.78,"y2":46.365,"y1":46.345,"CITYSTATE":"Lapwai, ID","FIXEDR":"No"}},{"type":"Point","coordinates":[-122.1145172,48.83145939],"properties":{"ID":95,"OPERATOR":"Nooksack Indian Tribe","CITY":"Deming","STATE":"WA","TYPE":"Tribal","ORG":"Tribe","VOMS":0,"FIXED":0,"NAME":"Nooksack Indian Tribe","TOTAL":0,"BUS":0,"DR":0,"FERRY":0,"LR":0,"SC":0,"OTHER":0,"TOT_FLEET":null,"x1":-122.1,"x2":-122.12,"y2":48.841,"y1":48.821,"CITYSTATE":"Deming, WA","FIXEDR":"No"}},{"type":"Point","coordinates":[-124.2249243,47.32130003],"properties":{"ID":96,"OPERATOR":"Quinault Tribe of the Quinault Reservation","CITY":"Taholah","STATE":"WA","TYPE":"Tribal","ORG":"Tribe","VOMS":2,"FIXED":0,"NAME":"Quinault Tribe of the Quinault Reservation","TOTAL":9513,"BUS":9513,"DR":0,"FERRY":0,"LR":0,"SC":0,"OTHER":0,"TOT_FLEET":3,"x1":-124.21,"x2":-124.23,"y2":47.331,"y1":47.311,"CITYSTATE":"Taholah, WA","FIXEDR":"No"}},{"type":"Point","coordinates":[-112.43549462485088,43.03354605060426],"properties":{"ID":97,"OPERATOR":"Shoshone-Bannock Tribes","CITY":"Fort Hall","STATE":"ID","TYPE":"Tribal","ORG":"Tribe","VOMS":12,"FIXED":0,"NAME":"Shoshone-Bannock Tribes","TOTAL":14792,"BUS":14792,"DR":0,"FERRY":0,"LR":0,"SC":0,"OTHER":0,"TOT_FLEET":15,"x1":-112.42,"x2":-112.44,"y2":43.044,"y1":43.024,"CITYSTATE":"Fort Hall, ID","FIXEDR":"No"}},{"type":"Point","coordinates":[-123.1485465,47.21467875],"properties":{"ID":98,"OPERATOR":"Skokomish Indian Tribe","CITY":"Skokomish","STATE":"WA","TYPE":"Tribal","ORG":"Tribe","VOMS":2,"FIXED":0,"NAME":"Skokomish Indian Tribe","TOTAL":840,"BUS":0,"DR":840,"FERRY":0,"LR":0,"SC":0,"OTHER":0,"TOT_FLEET":2,"x1":-123.13,"x2":-123.15,"y2":47.225,"y1":47.205,"CITYSTATE":"Skokomish, WA","FIXEDR":"No"}},{"type":"Point","coordinates":[-121.8258133,47.5139527],"properties":{"ID":99,"OPERATOR":"Snoqualmie Indian Tribe","CITY":"Snoqualmie","STATE":"WA","TYPE":"Tribal","ORG":"Tribe","VOMS":4,"FIXED":0,"NAME":"Snoqualmie Indian Tribe","TOTAL":3438,"BUS":0,"DR":3438,"FERRY":0,"LR":0,"SC":0,"OTHER":0,"TOT_FLEET":18,"x1":-121.81,"x2":-121.83,"y2":47.524,"y1":47.504,"CITYSTATE":"Snoqualmie, WA","FIXEDR":"No"}},{"type":"Point","coordinates":[-123.0801281,47.1218899],"properties":{"ID":100,"OPERATOR":"Squaxin Island Tribe","CITY":"Shelton","STATE":"WA","TYPE":"Tribal","ORG":"Tribe","VOMS":3,"FIXED":0,"NAME":"Squaxin Island Tribe","TOTAL":21050,"BUS":21050,"DR":0,"FERRY":0,"LR":0,"SC":0,"OTHER":0,"TOT_FLEET":3,"x1":-123.07,"x2":-123.09,"y2":47.132,"y1":47.112,"CITYSTATE":"Shelton, WA","FIXEDR":"No"}},{"type":"Point","coordinates":[-122.2595284,48.05561067],"properties":{"ID":101,"OPERATOR":"The Tulalip Tribes of Washington","CITY":"Tulalip","STATE":"WA","TYPE":"Tribal","ORG":"Tribe","VOMS":1,"FIXED":0,"NAME":"The Tulalip Tribes of Washington","TOTAL":5822,"BUS":5822,"DR":0,"FERRY":0,"LR":0,"SC":0,"OTHER":0,"TOT_FLEET":2,"x1":-122.25,"x2":-122.27,"y2":48.066,"y1":48.046,"CITYSTATE":"Tulalip, WA","FIXEDR":"No"}},{"type":"Point","coordinates":[-123.8212321,46.97746223],"properties":{"ID":102,"OPERATOR":"Coastal Community Action Program","CITY":"Aberdeen","STATE":"WA","TYPE":"Rural","ORG":"Private-Non-Profit Corporation","VOMS":3,"FIXED":0,"NAME":"Coastal Community Action Program","TOTAL":5129,"BUS":0,"DR":5129,"FERRY":0,"LR":0,"SC":0,"OTHER":0,"TOT_FLEET":4,"x1":-123.81,"x2":-123.83,"y2":46.987,"y1":46.967,"CITYSTATE":"Aberdeen, WA","FIXEDR":"No"}},{"type":"Point","coordinates":[-120.54735201173828,47.00310912708814],"properties":{"ID":103,"OPERATOR":"Hopesource","CITY":"Ellensburg","STATE":"WA","TYPE":"Rural","ORG":"Private-Non-Profit Corporation","VOMS":11,"FIXED":1,"NAME":"Central Transit","TOTAL":91751,"BUS":68884,"DR":22867,"FERRY":0,"LR":0,"SC":0,"OTHER":0,"TOT_FLEET":17,"x1":-120.53,"x2":-120.58,"y2":47.021,"y1":46.984,"CITYSTATE":"Ellensburg, WA","FIXEDR":"Yes"}},{"type":"Point","coordinates":[-122.9327255,46.1402478],"properties":{"ID":104,"OPERATOR":"Lower Columbia Community Action Council","CITY":"Longview","STATE":"WA","TYPE":"Rural","ORG":"Private-Non-Profit Corporation","VOMS":5,"FIXED":0,"NAME":"Lower Columbia Community Action Council","TOTAL":31518,"BUS":29537,"DR":1981,"FERRY":0,"LR":0,"SC":0,"OTHER":0,"TOT_FLEET":7,"x1":-122.92,"x2":-122.94,"y2":46.15,"y1":46.13,"CITYSTATE":"Longview, WA","FIXEDR":"No"}},{"type":"Point","coordinates":[-116.839623,43.49804002],"properties":{"ID":105,"OPERATOR":"Marsing Senior Center","CITY":"Marsing","STATE":"ID","TYPE":"Rural","ORG":"Private-Non-Profit Corporation","VOMS":1,"FIXED":0,"NAME":"Marsing Senior Center","TOTAL":765,"BUS":0,"DR":765,"FERRY":0,"LR":0,"SC":0,"OTHER":0,"TOT_FLEET":1,"x1":-116.83,"x2":-116.85,"y2":43.508,"y1":43.488,"CITYSTATE":"Marsing, ID","FIXEDR":"No"}},{"type":"Point","coordinates":[-121.7884725,47.4927392],"properties":{"ID":106,"OPERATOR":"Mt Si Senior Center","CITY":"North Bend","STATE":"WA","TYPE":"Rural","ORG":"Private-Non-Profit Corporation","VOMS":6,"FIXED":0,"NAME":"Mt Si Senior Center","TOTAL":22993,"BUS":0,"DR":22993,"FERRY":0,"LR":0,"SC":0,"OTHER":0,"TOT_FLEET":9,"x1":-121.77,"x2":-121.79,"y2":47.503,"y1":47.483,"CITYSTATE":"North Bend, WA","FIXEDR":"No"}},{"type":"Point","coordinates":[-119.5218280901862,48.41246981797814],"properties":{"ID":107,"OPERATOR":"Okanogan County Transportation & Nutrition","CITY":"Omak","STATE":"WA","TYPE":"Rural","ORG":"Private-Non-Profit Corporation","VOMS":11,"FIXED":0,"NAME":"Okanogan County Transportation & Nutrition","TOTAL":40000,"BUS":15049,"DR":24951,"FERRY":0,"LR":0,"SC":0,"OTHER":0,"TOT_FLEET":16,"x1":-119.51,"x2":-119.53,"y2":48.422,"y1":48.402,"CITYSTATE":"Omak, WA","FIXEDR":"No"}},{"type":"Point","coordinates":[-117.90383876561542,48.54252667375849],"properties":{"ID":108,"OPERATOR":"Rural Resources Community Action","CITY":"Colville","STATE":"WA","TYPE":"Rural","ORG":"Private-Non-Profit Corporation","VOMS":6,"FIXED":0,"NAME":"Rural Resources Community Action","TOTAL":26275,"BUS":6112,"DR":20163,"FERRY":0,"LR":0,"SC":0,"OTHER":0,"TOT_FLEET":13,"x1":-117.89,"x2":-117.91,"y2":48.553,"y1":48.533,"CITYSTATE":"Colville, WA","FIXEDR":"No"}},{"type":"Point","coordinates":[-122.723092,44.39394064],"properties":{"ID":109,"OPERATOR":"Senior Citizens of Sweet Home, Inc.","CITY":"Sweet Home","STATE":"OR","TYPE":"Rural","ORG":"Private-Non-Profit Corporation","VOMS":12,"FIXED":0,"NAME":"Senior Citizens of Sweet Home, Inc.","TOTAL":81017,"BUS":56809,"DR":24208,"FERRY":0,"LR":0,"SC":0,"OTHER":0,"TOT_FLEET":25,"x1":-122.71,"x2":-122.73,"y2":44.404,"y1":44.384,"CITYSTATE":"Sweet Home, OR","FIXEDR":"No"}},{"type":"Point","coordinates":[-122.6445059,45.52564287],"properties":{"ID":110,"OPERATOR":"Special Mobility Services","CITY":"Portland","STATE":"OR","TYPE":"Rural","ORG":"Private-Non-Profit Corporation","VOMS":5,"FIXED":0,"NAME":"Special Mobility Services","TOTAL":12468,"BUS":9586,"DR":2882,"FERRY":0,"LR":0,"SC":0,"OTHER":0,"TOT_FLEET":8,"x1":-122.63,"x2":-122.65,"y2":45.536,"y1":45.516,"CITYSTATE":"Portland, OR","FIXEDR":"No"}},{"type":"Point","coordinates":[-116.5591091,47.30920037],"properties":{"ID":111,"OPERATOR":"Valley Vista Care Corporation","CITY":"St. Maries","STATE":"ID","TYPE":"Rural","ORG":"Private-Non-Profit Corporation","VOMS":11,"FIXED":0,"NAME":"Valley Vista Care Corporation","TOTAL":14903,"BUS":0,"DR":14903,"FERRY":0,"LR":0,"SC":0,"OTHER":0,"TOT_FLEET":15,"x1":-116.54,"x2":-116.56,"y2":47.319,"y1":47.299,"CITYSTATE":"St. Maries, ID","FIXEDR":"No"}},{"type":"Point","coordinates":[-122.3100961,46.56524687],"properties":{"ID":112,"OPERATOR":"White Pass Community Services Coalition","CITY":"Morton","STATE":"WA","TYPE":"Rural","ORG":"Private-Non-Profit Corporation","VOMS":2,"FIXED":0,"NAME":"White Pass Community Services Coalition","TOTAL":8907,"BUS":8907,"DR":0,"FERRY":0,"LR":0,"SC":0,"OTHER":0,"TOT_FLEET":8,"x1":-122.3,"x2":-122.32,"y2":46.575,"y1":46.555,"CITYSTATE":"Morton, WA","FIXEDR":"No"}},{"type":"Point","coordinates":[-122.9207964,47.02673057],"properties":{"ID":113,"OPERATOR":"Thurston Regional Planning Council","CITY":"Olympia","STATE":"WA","TYPE":"Rural","ORG":"MPO, COG or Other Planning Agency","VOMS":4,"FIXED":1,"NAME":"Thurston Regional Planning Council","TOTAL":38494,"BUS":38494,"DR":0,"FERRY":0,"LR":0,"SC":0,"OTHER":0,"TOT_FLEET":6,"x1":-122.91,"x2":-123.16,"y2":47.018,"y1":46.716,"CITYSTATE":"Olympia, WA","FIXEDR":"Yes"}},{"type":"Point","coordinates":[-117.989167,46.31445947],"properties":{"ID":114,"OPERATOR":"Columbia County Public Transportation","CITY":"Dayton","STATE":"WA","TYPE":"Rural","ORG":"Independent Public Agency or Authority of Transit Service","VOMS":15,"FIXED":0,"NAME":"Columbia County Public Transportation","TOTAL":62137,"BUS":0,"DR":62137,"FERRY":0,"LR":0,"SC":0,"OTHER":0,"TOT_FLEET":24,"x1":-117.97,"x2":-117.99,"y2":46.324,"y1":46.304,"CITYSTATE":"Dayton, WA","FIXEDR":"No"}},{"type":"Point","coordinates":[-111.88240857038225,42.09799783217925],"properties":{"ID":115,"OPERATOR":"Franklin County Medical Center","CITY":"Preston","STATE":"ID","TYPE":"Rural","ORG":"Independent Public Agency or Authority of Transit Service","VOMS":2,"FIXED":0,"NAME":"Franklin County Medical Center","TOTAL":1799,"BUS":0,"DR":1799,"FERRY":0,"LR":0,"SC":0,"OTHER":0,"TOT_FLEET":2,"x1":-111.87,"x2":-111.89,"y2":42.108,"y1":42.088,"CITYSTATE":"Preston, ID","FIXEDR":"No"}},{"type":"Point","coordinates":[-114.45029,42.55402294],"properties":{"ID":116,"OPERATOR":"TransIV Buses - College of Southern Idaho","CITY":"Twin Falls","STATE":"ID","TYPE":"Rural","ORG":"Independent Public Agency or Authority of Transit Service","VOMS":11,"FIXED":0,"NAME":"TransIV Buses - College of Southern Idaho","TOTAL":31888,"BUS":0,"DR":31888,"FERRY":0,"LR":0,"SC":0,"OTHER":0,"TOT_FLEET":13,"x1":-114.44,"x2":-114.46,"y2":42.564,"y1":42.544,"CITYSTATE":"Twin Falls, ID","FIXEDR":"No"}},{"type":"Point","coordinates":[-116.99834257283575,46.72892366401309],"properties":{"ID":117,"OPERATOR":"City of Moscow","CITY":"Moscow","STATE":"ID","TYPE":"Rural","ORG":"City, County or Local Government Unit or Department of Transportation","VOMS":3,"FIXED":0,"NAME":"City of Moscow","TOTAL":6075,"BUS":0,"DR":6075,"FERRY":0,"LR":0,"SC":0,"OTHER":0,"TOT_FLEET":3,"x1":-116.98,"x2":-117,"y2":46.739,"y1":46.719,"CITYSTATE":"Moscow, ID","FIXEDR":"No"}},{"type":"Point","coordinates":[-111.1284152,43.7261462],"properties":{"ID":118,"OPERATOR":"City of Driggs","CITY":"Driggs","STATE":"ID","TYPE":"Rural","ORG":"City, County or Local Government Unit or Department of Transportation","VOMS":3,"FIXED":0,"NAME":"City of Driggs","TOTAL":14730,"BUS":14730,"DR":0,"FERRY":0,"LR":0,"SC":0,"OTHER":0,"TOT_FLEET":0,"x1":-111.11,"x2":-111.13,"y2":43.736,"y1":43.716,"CITYSTATE":"Driggs, ID","FIXEDR":"No"}},{"type":"Point","coordinates":[-122.90702182341408,44.543515089431274],"properties":{"ID":119,"OPERATOR":"City of Lebanon","CITY":"Lebanon","STATE":"OR","TYPE":"Rural","ORG":"City, County or Local Government Unit or Department of Transportation","VOMS":4,"FIXED":0,"NAME":"City of Lebanon","TOTAL":19744,"BUS":0,"DR":19744,"FERRY":0,"LR":0,"SC":0,"OTHER":0,"TOT_FLEET":4,"x1":-122.89,"x2":-122.91,"y2":44.554,"y1":44.534,"CITYSTATE":"Lebanon, OR","FIXEDR":"No"}},{"type":"Point","coordinates":[-118.7924319,45.66984181],"properties":{"ID":120,"OPERATOR":"City of Pendleton","CITY":"Pendleton","STATE":"OR","TYPE":"Rural","ORG":"City, County or Local Government Unit or Department of Transportation","VOMS":4,"FIXED":0,"NAME":"City of Pendleton","TOTAL":39842,"BUS":0,"DR":39842,"FERRY":0,"LR":0,"SC":0,"OTHER":0,"TOT_FLEET":0,"x1":-118.78,"x2":-118.8,"y2":45.68,"y1":45.66,"CITYSTATE":"Pendleton, OR","FIXEDR":"No"}},{"type":"Point","coordinates":[-122.780665,45.00225906],"properties":{"ID":121,"OPERATOR":"City of Silverton","CITY":"Silverton","STATE":"OR","TYPE":"Rural","ORG":"City, County or Local Government Unit or Department of Transportation","VOMS":2,"FIXED":0,"NAME":"City of Silverton","TOTAL":8510,"BUS":0,"DR":8510,"FERRY":0,"LR":0,"SC":0,"OTHER":0,"TOT_FLEET":3,"x1":-122.77,"x2":-122.79,"y2":45.012,"y1":44.992,"CITYSTATE":"Silverton, OR","FIXEDR":"No"}},{"type":"Point","coordinates":[-122.5985933,45.33225989],"properties":{"ID":122,"OPERATOR":"Clackamas County Social Services","CITY":"Oregon City","STATE":"OR","TYPE":"Rural","ORG":"City, County or Local Government Unit or Department of Transportation","VOMS":8,"FIXED":0,"NAME":"Clackamas County Social Services","TOTAL":61505,"BUS":52126,"DR":9379,"FERRY":0,"LR":0,"SC":0,"OTHER":0,"TOT_FLEET":9,"x1":-122.58,"x2":-122.6,"y2":45.342,"y1":45.322,"CITYSTATE":"Oregon City, OR","FIXEDR":"No"}},{"type":"Point","coordinates":[-117.60414762110068,46.474344385345006],"properties":{"ID":123,"OPERATOR":"Garfield County Transportation Program","CITY":"Pomeroy","STATE":"WA","TYPE":"Rural","ORG":"City, County or Local Government Unit or Department of Transportation","VOMS":3,"FIXED":0,"NAME":"Garfield County Transportation Program","TOTAL":10657,"BUS":0,"DR":10657,"FERRY":0,"LR":0,"SC":0,"OTHER":0,"TOT_FLEET":3,"x1":-117.59,"x2":-117.61,"y2":46.484,"y1":46.464,"CITYSTATE":"Pomeroy, WA","FIXEDR":"No"}},{"type":"Point","coordinates":[-119.0663188020333,43.581901356742314],"properties":{"ID":124,"OPERATOR":"Harney County","CITY":"Burns","STATE":"OR","TYPE":"Rural","ORG":"City, County or Local Government Unit or Department of Transportation","VOMS":7,"FIXED":0,"NAME":"Harney County","TOTAL":45502,"BUS":0,"DR":45502,"FERRY":0,"LR":0,"SC":0,"OTHER":0,"TOT_FLEET":0,"x1":-119.05,"x2":-119.07,"y2":43.592,"y1":43.572,"CITYSTATE":"Burns, OR","FIXEDR":"No"}},{"type":"Point","coordinates":[-120.7553901,45.85128982],"properties":{"ID":125,"OPERATOR":"Klickitat County Senior Services","CITY":"Goldendale","STATE":"WA","TYPE":"Rural","ORG":"City, County or Local Government Unit or Department of Transportation","VOMS":13,"FIXED":0,"NAME":"Klickitat County Senior Services","TOTAL":16452,"BUS":0,"DR":16452,"FERRY":0,"LR":0,"SC":0,"OTHER":0,"TOT_FLEET":13,"x1":-120.74,"x2":-120.76,"y2":45.861,"y1":45.841,"CITYSTATE":"Goldendale, WA","FIXEDR":"No"}},{"type":"Point","coordinates":[-116.7984462011567,47.72716288153009],"properties":{"ID":126,"OPERATOR":"Kootenai County","CITY":"Coeur d'Alene","STATE":"ID","TYPE":"Urban","ORG":"City, County or Local Government Unit or Department of Transportation","VOMS":7,"FIXED":0,"NAME":"Kootenai County","TOTAL":193931,"BUS":152215,"DR":41716,"FERRY":0,"LR":0,"SC":0,"OTHER":0,"TOT_FLEET":17,"x1":-116.78,"x2":-116.8,"y2":47.737,"y1":47.717,"CITYSTATE":"Coeur d'Alene, ID","FIXEDR":"No"}},{"type":"Point","coordinates":[-113.9022483,45.1792934],"properties":{"ID":127,"OPERATOR":"Lemhi Ride","CITY":"Salmon","STATE":"ID","TYPE":"Rural","ORG":"City, County or Local Government Unit or Department of Transportation","VOMS":2,"FIXED":0,"NAME":"Lemhi Ride","TOTAL":10722,"BUS":0,"DR":10722,"FERRY":0,"LR":0,"SC":0,"OTHER":0,"TOT_FLEET":3,"x1":-113.89,"x2":-113.91,"y2":45.189,"y1":45.169,"CITYSTATE":"Salmon, ID","FIXEDR":"No"}},{"type":"Point","coordinates":[-121.1811185,45.59446526],"properties":{"ID":128,"OPERATOR":"Mid-Columbia Council of Governments","CITY":"The Dalles","STATE":"OR","TYPE":"Rural","ORG":"City, County or Local Government Unit or Department of Transportation","VOMS":9,"FIXED":0,"NAME":"Mid-Columbia Council of Governments","TOTAL":19696,"BUS":697,"DR":18999,"FERRY":0,"LR":0,"SC":0,"OTHER":0,"TOT_FLEET":16,"x1":-121.17,"x2":-121.19,"y2":45.604,"y1":45.584,"CITYSTATE":"The Dalles, OR","FIXEDR":"No"}},{"type":"Point","coordinates":[-122.2932016,47.92302017],"properties":{"ID":129,"OPERATOR":"Senior Services of Snohomish County","CITY":"Mukilteo","STATE":"WA","TYPE":"Rural","ORG":"City, County or Local Government Unit or Department of Transportation","VOMS":10,"FIXED":0,"NAME":"Senior Services of Snohomish County","TOTAL":19554,"BUS":0,"DR":19554,"FERRY":0,"LR":0,"SC":0,"OTHER":0,"TOT_FLEET":10,"x1":-122.28,"x2":-122.3,"y2":47.933,"y1":47.913,"CITYSTATE":"Mukilteo, WA","FIXEDR":"No"}},{"type":"Point","coordinates":[-121.878305,45.69835331],"properties":{"ID":130,"OPERATOR":"Skamania County Senior Services","CITY":"Stevenson","STATE":"WA","TYPE":"Rural","ORG":"City, County or Local Government Unit or Department of Transportation","VOMS":11,"FIXED":0,"NAME":"Skamania County Senior Services","TOTAL":18702,"BUS":5440,"DR":13262,"FERRY":0,"LR":0,"SC":0,"OTHER":0,"TOT_FLEET":10,"x1":-121.86,"x2":-121.88,"y2":45.708,"y1":45.688,"CITYSTATE":"Stevenson, WA","FIXEDR":"No"}},{"type":"Point","coordinates":[-116.09342909425888,44.91417850076173],"properties":{"ID":15,"OPERATOR":"Treasure Valley Transit","CITY":"McCall","STATE":"ID","TYPE":"Rural","ORG":"Private-Non-Profit Corporation","VOMS":21,"FIXED":1,"NAME":"Mountain Community Transit","TOTAL":123622,"BUS":79589,"DR":44033,"FERRY":0,"LR":0,"SC":0,"OTHER":0,"TOT_FLEET":31,"x1":-116.07,"x2":-116.12,"y2":44.93,"y1":44.886,"CITYSTATE":"McCall, ID","FIXEDR":"Yes"}},{"type":"Point","coordinates":[-115.79626130531817,43.121021486037115],"properties":{"ID":15,"OPERATOR":"Treasure Valley Transit","CITY":"Mountain Home","STATE":"ID","TYPE":"Rural","ORG":"Private-Non-Profit Corporation","VOMS":21,"FIXED":1,"NAME":"Mountain Home Community Transit","TOTAL":123622,"BUS":79589,"DR":44033,"FERRY":0,"LR":0,"SC":0,"OTHER":0,"TOT_FLEET":31,"x1":-115.78,"x2":-115.87,"y2":43.156,"y1":43.044,"CITYSTATE":"Mountain Home, ID","FIXEDR":"Yes"}}]}}}