{"type":"Topology","arcs":[],"objects":{"ski_resorts":{"type":"GeometryCollection","geometries":[{"type":"Point","coordinates":[-121.6789693,44.0035024,0],"properties":{"Name":"Mt. Bachelor","descriptio":"4318 acres, 3365' vertical, 88 trails, 11 lifts","timestamp":null,"begin":null,"end":null,"altitudeMo":null,"tessellate":-1,"extrude":0,"visibility":-1,"drawOrder":null,"icon":null}},{"type":"Point","coordinates":[-121.664763,45.331468,0],"properties":{"Name":"Mt. Hood Meadows Ski Resort","descriptio":"2150 acres, 2777' vertical, 85 trails, 11 lifts","timestamp":null,"begin":null,"end":null,"altitudeMo":null,"tessellate":-1,"extrude":0,"visibility":-1,"drawOrder":null,"icon":null}},{"type":"Point","coordinates":[-121.711223,45.331181,0],"properties":{"Name":"Timberline\n","descriptio":"1415 acres, 3690' vertical, 41 trails, 10 lifts","timestamp":null,"begin":null,"end":null,"altitudeMo":null,"tessellate":-1,"extrude":0,"visibility":-1,"drawOrder":null,"icon":null}},{"type":"Point","coordinates":[-121.772458,45.301742,0],"properties":{"Name":"Mt. Hood Skibowl","descriptio":"960 acres, 1500' vertical, 65 trails, 4 lifts","timestamp":null,"begin":null,"end":null,"altitudeMo":null,"tessellate":-1,"extrude":0,"visibility":-1,"drawOrder":null,"icon":null}},{"type":"Point","coordinates":[-118.233505,44.962974,0],"properties":{"Name":"Anthony Lakes","descriptio":"1100 acres, 900' vertical, 21 trails, 3 lifts","timestamp":null,"begin":null,"end":null,"altitudeMo":null,"tessellate":-1,"extrude":0,"visibility":-1,"drawOrder":null,"icon":null}},{"type":"Point","coordinates":[-121.874771,44.406929,0],"properties":{"Name":"Hoodoo Ski Area","descriptio":"800 acres, 1035' vertical, 34 trails, 5 lifts","timestamp":null,"begin":null,"end":null,"altitudeMo":null,"tessellate":-1,"extrude":0,"visibility":-1,"drawOrder":null,"icon":null}},{"type":"Point","coordinates":[-122.036347,43.600688,0],"properties":{"Name":"Willamette Pass Ski Area","descriptio":"555 acres, 1563' vertical, 29 trails, 6 lifts","timestamp":null,"begin":null,"end":null,"altitudeMo":null,"tessellate":-1,"extrude":0,"visibility":-1,"drawOrder":null,"icon":null}},{"type":"Point","coordinates":[-122.7058913,42.0812709,0],"properties":{"Name":"Mt. Ashland Ski Resort","descriptio":"220 acres, 1150' vertical, 23 trails, 4 lifts","timestamp":null,"begin":null,"end":null,"altitudeMo":null,"tessellate":-1,"extrude":0,"visibility":-1,"drawOrder":null,"icon":null}},{"type":"Point","coordinates":[-118.0508957,45.7543789,0],"properties":{"Name":"Spout Springs Ski Resort\n","descriptio":"256 acres, 650' vertical, 16 trails, 2 lifts","timestamp":null,"begin":null,"end":null,"altitudeMo":null,"tessellate":-1,"extrude":0,"visibility":-1,"drawOrder":null,"icon":null}},{"type":"Point","coordinates":[-120.295583,42.2369855,0],"properties":{"Name":"Warner Canyon Ski Area","descriptio":"200 acres, 780' vertical, 21 trails, 1 lift http://warnercanyon.org/","timestamp":null,"begin":null,"end":null,"altitudeMo":null,"tessellate":-1,"extrude":0,"visibility":-1,"drawOrder":null,"icon":null}},{"type":"Point","coordinates":[-117.112573,45.282172,0],"properties":{"Name":"Ferguson Ridge Ski Area","descriptio":"170 acres, 640' vertical, 8 trails, 2 lifts","timestamp":null,"begin":null,"end":null,"altitudeMo":null,"tessellate":-1,"extrude":0,"visibility":-1,"drawOrder":null,"icon":null}},{"type":"Point","coordinates":[-121.745835,45.302916,0],"properties":{"Name":"Summit Ski Area","descriptio":"70 acres, 306' vertical, 6 trails, 1 lift","timestamp":null,"begin":null,"end":null,"altitudeMo":null,"tessellate":-1,"extrude":0,"visibility":-1,"drawOrder":null,"icon":null}},{"type":"Point","coordinates":[-121.6054235,45.4119856,0],"properties":{"Name":"Cooper Spur","descriptio":"50 acres, 350' vertical, 10 trails, 2 lifts","timestamp":null,"begin":null,"end":null,"altitudeMo":null,"tessellate":-1,"extrude":0,"visibility":-1,"drawOrder":null,"icon":null}},{"type":"Point","coordinates":[-115.868382,46.571076,0],"properties":{"Name":"Bald Mountain Ski Area","descriptio":null,"timestamp":null,"begin":null,"end":null,"altitudeMo":null,"tessellate":-1,"extrude":0,"visibility":-1,"drawOrder":null,"icon":null}},{"type":"Point","coordinates":[-116.108558,43.764803,0],"properties":{"Name":"Bogus Basin Ski Resort","descriptio":null,"timestamp":null,"begin":null,"end":null,"altitudeMo":null,"tessellate":-1,"extrude":0,"visibility":-1,"drawOrder":null,"icon":null}},{"type":"Point","coordinates":[-116.156559,45.004926,0],"properties":{"Name":"Brundage Mountain Ski Resort","descriptio":null,"timestamp":null,"begin":null,"end":null,"altitudeMo":null,"tessellate":-1,"extrude":0,"visibility":-1,"drawOrder":null,"icon":null}},{"type":"Point","coordinates":[-116.429887,46.078143,0],"properties":{"Name":"Cottonwood Butte Ski Area","descriptio":null,"timestamp":null,"begin":null,"end":null,"altitudeMo":null,"tessellate":-1,"extrude":0,"visibility":-1,"drawOrder":null,"icon":null}},{"type":"Point","coordinates":[-111.630964,43.645579,0],"properties":{"Name":"Kelly Canyon Ski Resort","descriptio":null,"timestamp":null,"begin":null,"end":null,"altitudeMo":null,"tessellate":-1,"extrude":0,"visibility":-1,"drawOrder":null,"icon":null}},{"type":"Point","coordinates":[-115.69818,47.456184,0],"properties":{"Name":"Lookout Pass Ski Resort","descriptio":null,"timestamp":null,"begin":null,"end":null,"altitudeMo":null,"tessellate":-1,"extrude":0,"visibility":-1,"drawOrder":null,"icon":null}},{"type":"Point","coordinates":[-114.286169,42.188306,0],"properties":{"Name":"Magic Mountain","descriptio":null,"timestamp":null,"begin":null,"end":null,"altitudeMo":null,"tessellate":-1,"extrude":0,"visibility":-1,"drawOrder":null,"icon":null}},{"type":"Point","coordinates":[-112.159252,42.779323,0],"properties":{"Name":"Pebble Creek Ski Area","descriptio":null,"timestamp":null,"begin":null,"end":null,"altitudeMo":null,"tessellate":-1,"extrude":0,"visibility":-1,"drawOrder":null,"icon":null}},{"type":"Point","coordinates":[-113.607731,42.317892,0],"properties":{"Name":"Pomerelle Mountain Resort","descriptio":null,"timestamp":null,"begin":null,"end":null,"altitudeMo":null,"tessellate":-1,"extrude":0,"visibility":-1,"drawOrder":null,"icon":null}},{"type":"Point","coordinates":[-114.366152,43.497422,0],"properties":{"Name":"Rotarun Ski Area","descriptio":null,"timestamp":null,"begin":null,"end":null,"altitudeMo":null,"tessellate":-1,"extrude":0,"visibility":-1,"drawOrder":null,"icon":null}},{"type":"Point","coordinates":[-116.623306,48.366913,0],"properties":{"Name":"Schweitzer Mountain Resort","descriptio":null,"timestamp":null,"begin":null,"end":null,"altitudeMo":null,"tessellate":-1,"extrude":0,"visibility":-1,"drawOrder":null,"icon":null}},{"type":"Point","coordinates":[-116.138148,47.536153,0],"properties":{"Name":"Silver Mountain Resort","descriptio":null,"timestamp":null,"begin":null,"end":null,"altitudeMo":null,"tessellate":-1,"extrude":0,"visibility":-1,"drawOrder":null,"icon":null}},{"type":"Point","coordinates":[-116.090083,45.868736,0],"properties":{"Name":"Snowhaven Ski Area","descriptio":null,"timestamp":null,"begin":null,"end":null,"altitudeMo":null,"tessellate":-1,"extrude":0,"visibility":-1,"drawOrder":null,"icon":null}},{"type":"Point","coordinates":[-114.82893,43.484999,0],"properties":{"Name":"Soldier Mountain","descriptio":null,"timestamp":null,"begin":null,"end":null,"altitudeMo":null,"tessellate":-1,"extrude":0,"visibility":-1,"drawOrder":null,"icon":null}},{"type":"Point","coordinates":[-114.366989,43.671472,0],"properties":{"Name":"Sun valley","descriptio":null,"timestamp":null,"begin":null,"end":null,"altitudeMo":null,"tessellate":-1,"extrude":0,"visibility":-1,"drawOrder":null,"icon":null}},{"type":"Point","coordinates":[-116.122656,44.671949,0],"properties":{"Name":"Tamarack Resort","descriptio":null,"timestamp":null,"begin":null,"end":null,"altitudeMo":null,"tessellate":-1,"extrude":0,"visibility":-1,"drawOrder":null,"icon":null}},{"type":"Point","coordinates":[-117.564526,48.301923,0],"properties":{"Name":"49 North Mountain Resort","descriptio":null,"timestamp":null,"begin":null,"end":null,"altitudeMo":null,"tessellate":-1,"extrude":0,"visibility":-1,"drawOrder":null,"icon":null}},{"type":"Point","coordinates":[-120.136356,47.598755,0],"properties":{"Name":"Badger Mountain","descriptio":null,"timestamp":null,"begin":null,"end":null,"altitudeMo":null,"tessellate":-1,"extrude":0,"visibility":-1,"drawOrder":null,"icon":null}},{"type":"Point","coordinates":[-121.473083,46.935202,0],"properties":{"Name":"Crystal Mountain Resort","descriptio":null,"timestamp":null,"begin":null,"end":null,"altitudeMo":null,"tessellate":-1,"extrude":0,"visibility":-1,"drawOrder":null,"icon":null}},{"type":"Point","coordinates":[-120.05559,47.935969,0],"properties":{"Name":"Echo Valley Ski Area","descriptio":null,"timestamp":null,"begin":null,"end":null,"altitudeMo":null,"tessellate":-1,"extrude":0,"visibility":-1,"drawOrder":null,"icon":null}},{"type":"Point","coordinates":[-123.530445,47.986015,0],"properties":{"Name":"Hurricane Ridge","descriptio":null,"timestamp":null,"begin":null,"end":null,"altitudeMo":null,"tessellate":-1,"extrude":0,"visibility":-1,"drawOrder":null,"icon":null}},{"type":"Point","coordinates":[-120.668448,47.613902,0],"properties":{"Name":"Leavenworth Ski Hill","descriptio":null,"timestamp":null,"begin":null,"end":null,"altitudeMo":null,"tessellate":-1,"extrude":0,"visibility":-1,"drawOrder":null,"icon":null}},{"type":"Point","coordinates":[-119.912467,48.39573,0],"properties":{"Name":"Loup Loup Ski Bowl","descriptio":null,"timestamp":null,"begin":null,"end":null,"altitudeMo":null,"tessellate":-1,"extrude":0,"visibility":-1,"drawOrder":null,"icon":null}},{"type":"Point","coordinates":[-120.398955,47.292213,0],"properties":{"Name":"Mission Ridge Ski Resort","descriptio":null,"timestamp":null,"begin":null,"end":null,"altitudeMo":null,"tessellate":-1,"extrude":0,"visibility":-1,"drawOrder":null,"icon":null}},{"type":"Point","coordinates":[-121.660988,48.857459,0],"properties":{"Name":"Mt. Baker Ski Area","descriptio":null,"timestamp":null,"begin":null,"end":null,"altitudeMo":null,"tessellate":-1,"extrude":0,"visibility":-1,"drawOrder":null,"icon":null}},{"type":"Point","coordinates":[-117.131338,47.887111,0],"properties":{"Name":"Mt. Spokane Ski & Snowboard park","descriptio":null,"timestamp":null,"begin":null,"end":null,"altitudeMo":null,"tessellate":-1,"extrude":0,"visibility":-1,"drawOrder":null,"icon":null}},{"type":"Point","coordinates":[-119.169302,48.900217,0],"properties":{"Name":"Sitzmark Ski Area","descriptio":null,"timestamp":null,"begin":null,"end":null,"altitudeMo":null,"tessellate":-1,"extrude":0,"visibility":-1,"drawOrder":null,"icon":null}},{"type":"Point","coordinates":[-117.851586,46.081626,0],"properties":{"Name":"Ski Bluewood","descriptio":null,"timestamp":null,"begin":null,"end":null,"altitudeMo":null,"tessellate":-1,"extrude":0,"visibility":-1,"drawOrder":null,"icon":null}},{"type":"Point","coordinates":[-121.09045,47.743797,0],"properties":{"Name":"Stevens Pass Ski Area","descriptio":null,"timestamp":null,"begin":null,"end":null,"altitudeMo":null,"tessellate":-1,"extrude":0,"visibility":-1,"drawOrder":null,"icon":null}},{"type":"Point","coordinates":[-121.412315,47.410026,0],"properties":{"Name":"The Summit at Snoqualmie","descriptio":null,"timestamp":null,"begin":null,"end":null,"altitudeMo":null,"tessellate":-1,"extrude":0,"visibility":-1,"drawOrder":null,"icon":null}},{"type":"Point","coordinates":[-121.391201,46.636708,0],"properties":{"Name":"WhitePass","descriptio":null,"timestamp":null,"begin":null,"end":null,"altitudeMo":null,"tessellate":-1,"extrude":0,"visibility":-1,"drawOrder":null,"icon":null}}]}},"crs":{"type":"name","properties":{"name":"urn:ogc:def:crs:OGC:1.3:CRS84"}}}